     3.03           OBSERVATION DATA    M: Mixed            RINEX VERSION / TYPE
Geo++ RINEX Logger  Geo++               20190801 080228 UTC PGM / RUN BY / DATE
************************************************************COMMENT
This file was generated by the Geo++ RINEX Logger App       COMMENT
for Android devices (Version 2.1.3). If you encounter       COMMENT
any issues, please send an email to android@geopp.de        COMMENT
************************************************************COMMENT
Geo++                                                       MARKER NAME
GEODETIC                                                    MARKER TYPE
Geo++               Geo++                                   OBSERVER / AGENCY
unknown             Xiaomi              MI 8                REC # / TYPE / VERS
unknown             MI 8                                    ANT # / TYPE
  3842468.5222   650478.2802  5032260.1762                  APPROX POSITION XYZ
        0.0000        0.0000        0.0000                  ANTENNA: DELTA H/E/N
G    8 C1C L1C D1C S1C C5Q L5Q D5Q S5Q                      SYS / # / OBS TYPES
R    4 C1C L1C D1C S1C                                      SYS / # / OBS TYPES
E   12 C1B L1B D1B S1B C1C L1C D1C S1C C5Q L5Q D5Q S5Q      SYS / # / OBS TYPES
C    4 C2I L2I D2I S2I                                      SYS / # / OBS TYPES
J    8 C1C L1C D1C S1C C5Q L5Q D5Q S5Q                      SYS / # / OBS TYPES
  2019     8     1     8     2   46.0000000     GPS         TIME OF FIRST OBS
 24 R01  1 R02 -4 R03  5 R04  6 R05  1 R06 -4 R07  5 R08  6 GLONASS SLOT / FRQ #
    R09 -2 R10 -7 R11  0 R12 -1 R13 -2 R14 -7 R15  0 R16 -1 GLONASS SLOT / FRQ #
    R17  4 R18 -3 R19  3 R20  2 R21  4 R22 -3 R23  3 R24  2 GLONASS SLOT / FRQ #
G L1C                                                       SYS / PHASE SHIFT
G L5Q -0.25000                                              SYS / PHASE SHIFT
R L1C                                                       SYS / PHASE SHIFT
E L1B                                                       SYS / PHASE SHIFT
E L1C +0.50000                                              SYS / PHASE SHIFT
E L5Q -0.25000                                              SYS / PHASE SHIFT
C L2I                                                       SYS / PHASE SHIFT
J L1C                                                       SYS / PHASE SHIFT
J L5Q -0.25000                                              SYS / PHASE SHIFT
 C1C    0.000 C1P    0.000 C2C    0.000 C2P    0.000        GLONASS COD/PHS/BIS
                                                            END OF HEADER
> 2019  8  1  8  2 46.0000000  2  0
> 2019  8  1  8  2 46.0000000  0 25
C11  25820397.411   134453584.6131       2874.792          24.908  
C12  21364477.480   111250440.4651       -397.260          30.936  
C13  38872842.691   202421092.7231      -1189.785          25.518  
C20  26416713.390   137558758.8191       -788.311          24.110  
C24  22740246.055   118414428.2441      -1963.143          31.211  
C25  23349180.898   121585311.5611       1340.298          31.255  
C26  25394255.623                       -3734.600          22.139  
E27                                                                                                                                  24466105.967    96010254.3071       1145.951          30.120  
E36                                                                                                                                  25649051.931   100652388.8431      -2010.823          26.783  
G02  25402910.331   133493194.0291      -3421.273          25.948  
G05  23572118.862   123872319.8611        394.663          34.032  
G09  25259108.283                         571.059          22.596    25259114.279                         427.324          23.455  
G16  23364554.256   122781560.8681       3085.514          27.502  
G21  22034530.112                        2154.676          21.733  
G23  25206729.145   132462255.6721       -936.974          29.810  
G25  22545002.320   118474786.4511      -3407.271          32.663    22545005.617    88471444.2631      -2544.385          26.655  
G26  21381289.841   112359435.8531       1920.241          31.242    21381288.342    83904767.6361       1433.843          29.464  
G29  20664590.102   108593152.9991      -1806.019          33.221  
G31  21880262.909   114981557.1631      -2381.391          36.530  
R06  23562826.495                       -1707.397          18.676  
R07  23393864.964   125229190.4281       1507.448          28.610  
R15  22148465.636                        3574.254          24.697  
R17  23015531.379   123160756.6101       3721.762          30.622  
R23  19584345.240   104763040.5731      -2136.220          33.057  
R24  19713254.198   105415629.3371       1564.391          29.343  
> 2019  8  1  8  2 47.0000000  0 24
C11  25819845.793   134450709.396        2875.217          24.763  
C12  21364553.927   111250837.565        -397.100          31.214  
C13  38873066.336                       -1188.069          25.552  
C20  26416862.986                        -788.208          23.979  
C24  22740624.094   118416391.257       -1963.013          31.020  
C25  23348922.178   121583971.214        1340.347          30.663  
C26  25394976.324                       -3726.830          19.779  
E27                                                                                                                                  24465814.569    96009108.105        1146.202          29.787  
E36                                                                                                                                  25649564.876   100654399.426       -2010.583          27.684  
G02  25403565.677   133496614.760       -3420.731          25.618  
G05  23572047.211   123871925.309         394.552          33.457  
G09  25259006.354                         572.368          23.291    25259002.157                         427.674          23.147  
G16  23363971.759   122778474.970        3085.898          27.619  
G21  22034119.996                        2158.329          21.621  
G23  25206907.821   132463192.577        -936.905          29.632  
G25  22545651.970   118478193.462       -3407.011          32.369    22545653.169                       -2543.743          25.541  
G26  21380924.694   112357515.385        1920.468          31.294    21380922.895    83903333.477        1434.159          29.043  
G29  20664932.765   108594958.919       -1805.920          32.826  
G31  21880715.296   114983938.532       -2381.369          36.773  
R07  23393587.956   125227683.180        1507.248          28.557  
R15  22147786.307                        3571.850          25.537  
R17  23014847.253   123157034.428        3722.183          30.749  
R23  19584747.561   104765176.748       -2136.175          33.043  
R24  19712966.098   105414064.968        1564.369          28.942  
> 2019  8  1  8  2 48.0000000  0 25
C11  25819292.975                        2875.610          24.575  
C12  21364627.676   111251234.729        -397.163          31.305  
C13  38873294.178                       -1188.000          26.002  
C20  26417015.581                        -789.242          23.762  
C24  22741000.033   118418354.430       -1963.173          30.987  
C25  23348666.155   121582630.946        1340.268          30.438  
C26  25395689.230                       -3726.630          17.851  
E27                                                                                                                                  24465522.571    96007961.823        1146.282          30.347  
E36                                                                                                                                  25650078.120   100656409.821       -2010.396          27.302  
G02  25404219.825   133500035.425       -3420.665          24.878  
G05  23571971.664   123871531.035         394.274          32.699  
G09  25258887.636                         572.568          23.689    25258893.332    99121334.4691        427.103          23.914  
G16  23363384.465   122775388.875        3086.095          27.881  
G21  22033711.679                        2160.400          21.614  
G23  25207089.195   132464129.581        -937.004          29.387  
G25  22546302.220   118481600.356       -3406.894          32.527  
G26  21380558.647   112355595.038        1920.347          30.938    21380558.347    83901899.403        1434.074          29.486  
G29  20665279.325   108596764.814       -1805.895          32.777  
G31  21881169.182   114986320.008       -2381.476          36.498  
R06  23563406.893                       -1703.118          17.123  
R07  23393316.344   125226176.307        1506.873          27.971  
R15  22147124.665   118347538.9211       3572.987          26.255  
R17  23014157.131   123153312.144        3722.283          30.946  
R23  19585139.390   104767313.093       -2136.344          33.448  
R24  19712676.498   105412500.905        1564.062          29.199  
> 2019  8  1  8  2 49.0000000  0 25
C11  25818740.158                        2876.506          23.780  
C12  21364706.222   111251631.940        -397.211          31.226  
C13  38873525.019   202424658.2221      -1188.184          25.369  
C20  26417164.877                        -789.287          24.632  
C24  22741378.072   118420317.723       -1963.293          30.656  
C25  23348408.033   121581290.791        1340.154          30.513  
C26  25396414.128                       -3735.027          19.015  
E27                                                                                                                                  24465231.173    96006815.537        1146.286          29.818  
E36                                                                                                                                  25650588.967   100658420.095       -2010.273          27.369  
G02  25404864.678                       -3420.835          24.847  
G05  23571897.015   123871137.012         394.023          33.421  
G09  25258784.507   132735793.1091        571.754          23.789    25258783.608    99120907.316         427.153          22.474  
G16  23362794.474   122772302.581        3086.294          27.625  
G21  22033291.969                        2156.734          20.770  
G23  25207267.572   132465066.814        -937.234          29.234  
G25  22546949.771   118485007.172       -3406.816          32.234    22546949.172                       -2544.275          24.931  
G26  21380194.999   112353674.572        1920.466          31.332    21380192.301    83900465.340        1434.063          29.182  
G29  20665619.289   108598570.742       -1805.928          33.001  
G31  21881622.468   114988701.631       -2381.623          36.352  
R06  23563800.520                       -1704.194          16.537  
R07  23393036.038   125224669.722        1506.586          28.236  
R15  22146454.928                        3572.714          25.901  
R17  23013458.314   123149589.701        3722.443          30.868  
R23  19585542.911   104769449.706       -2136.613          33.237  
R24  19712380.303   105410937.144        1563.762          29.000  
> 2019  8  1  8  2 50.0000000  0 25
C11  25818186.441                        2876.035          23.852  
C12  21364782.369   111252029.444        -397.504          31.159  
C13  38873752.861   202425846.428       -1188.207          25.869  
C20  26417313.275                        -786.107          24.118  
C24  22741756.110   118422281.365       -1963.642          30.585  
C25  23348154.709   121579951.058        1339.733          30.861  
C26  25397127.335                       -3735.152          19.623  
E27                                                                                                                                  24464937.976    96005669.390        1146.146          29.645  
E36                                                                                                                                  25651101.312   100660430.359       -2010.264          27.644  
G02  25405516.727   133506875.9701      -3420.228          26.210  
G05  23571819.369   123870743.530         393.482          33.548  
G09  25258669.387                         571.446          23.641    25258675.383                         426.809          22.307  
G16  23362208.679   122769216.349        3086.232          27.639  
G21  22032891.447                        2152.341          20.672  
G23  25207442.651   132466004.456        -937.642          28.908  
G25  22547596.724   118488414.188       -3407.016          32.255    22547597.023    88481620.7901      -2544.179          25.297  
G26  21379829.252   112351754.483        1920.089          31.614    21379826.554    83899031.532        1433.808          29.263  
G29  20665966.149   108600377.046       -1806.304          33.254  
G31  21882076.654   114991083.688       -2382.057          36.514  
R06  23564087.722                       -1707.473          16.955  
R07  23392751.835   125223163.808        1505.914          28.185  
R15  22145775.299   118340393.2561       3572.784          25.400  
R17  23012758.299   123145867.436        3722.265          30.766  
R23  19585944.633   104771586.772       -2137.066          33.436  
R24  19712084.708   105409373.939        1563.204          29.089  
> 2019  8  1  8  2 51.0000000  0 25
C11  25817638.421                        2873.066          23.863  
C12  21364860.015   111252427.314        -397.870          30.752  
C13  38873977.705   202427034.161       -1187.732          26.761  
C20  26417467.068   137562702.5451       -789.558          24.905  
C24  22742133.848   118424245.473       -1964.107          30.533  
C25  23347895.688   121578611.720        1339.339          31.379  
C26  25397850.734                       -3738.619          19.667  
E27                                                                                                                                  24464645.978    96004523.390        1146.000          29.248  
E36                                                                                                                                  25651612.758   100662440.907       -2010.548          27.671  
G02  25406165.478   133510296.459       -3420.489          26.883  
G05  23571745.620   123870350.715         392.815          33.991  
G09  25258569.556                         570.588          23.512    25258568.657                         426.474          21.515  
G16  23361619.887                        3085.870          27.527  
G21  22032474.136                        2158.944          20.960  
G23  25207622.526   132466942.602        -938.146          29.058  
G25  22548244.275   118491821.415       -3407.227          31.890    22548245.774    88484165.240       -2544.450          24.281  
G26  21379465.304   112349834.693        1919.790          31.949    21379460.208    83897597.897        1433.635          28.576  
G29  20666309.711   108602183.689       -1806.644          33.676  
G31  21882527.541   114993466.235       -2382.547          36.354  
R06  23564405.801                       -1708.860          17.175  
R07  23392472.728   125221658.581        1505.227          28.904  
R15  22145114.556   118336820.813        3572.443          25.191  
R17  23012067.277   123142145.349        3722.087          30.978  
R23  19586338.860   104773724.356       -2137.584          33.046  
R24  19711793.909   105407811.302        1562.637          28.877  
> 2019  8  1  8  2 52.0000000  0 25
C11  25817085.604                        2874.259          24.051  
C12  21364934.664   111252825.283        -397.969          30.765  
C13  38874210.344   202428222.066       -1187.905          26.800  
C20  26417617.264   137563492.203        -789.658          25.414  
C24  22742508.589   118426209.713       -1964.240          30.384  
C25  23347639.965   121577272.500        1339.220          31.059  
C26  25398565.439                       -3738.613          18.917  
E27                                                                                                                                  24464353.680    96003377.438        1145.952          29.095  
E36                                                                                                                                  25652127.202   100664451.281       -2010.374          27.836  
G02  25406814.528   133513716.597       -3420.137          26.751  
G05  23571674.269   123869958.108         392.607          34.095  
G09  25258458.633                         570.188          23.302    25258457.134                         421.454          21.386  
G16  23361030.795   122763043.9021       3086.364          28.146  
G21  22032064.619                        2159.758          21.364  
G23  25207800.603   132467880.940        -938.337          28.619  
G25  22548893.026   118495228.569       -3407.154          31.555    22548897.223    88486709.482       -2544.242          23.872  
G26  21379098.358   112347914.980        1919.713          32.066    21379094.761    83896164.349        1433.548          28.180  
G29  20666653.873   108603990.364       -1806.675          33.651  
G31  21882982.327   114995848.907       -2382.672          36.243  
R06  23564698.998                       -1705.426          16.100  
R07  23392183.428   125220153.730        1504.851          28.705  
R15  22144454.113   118333248.306        3572.507          24.866  
R17  23011368.161   123138423.103        3722.246          30.669  
R23  19586738.783   104775862.205       -2137.848          33.295  
R24  19711502.811   105406249.058        1562.244          28.696  
> 2019  8  1  8  2 53.0000000  0 24
C11  25816535.185                        2875.840          23.782  
C12  21365010.811   111253223.349        -398.066          30.541  
C13  38874433.690   202429409.736       -1187.670          27.109  
C20  26417771.657   137564282.059        -789.856          25.280  
C24  22742885.128   118428174.152       -1964.439          29.895  
C25  23347379.146   121575933.432        1339.068          31.156  
C26  25399277.446                       -3731.772          18.869  
E27                                                                                                                                  24464061.383    96002231.441        1145.997          28.592  
E36                                                                                                                                  25652638.648   100666461.517       -2010.236          27.015  
G02  25407468.675   133517136.558       -3419.961          27.533  
G05  23571599.921   123869565.899         392.209          33.022  
G09  25258349.808   132733510.1201        570.281          23.661    25258350.708                         426.381          21.777  
G16  23360447.399                        3086.258          28.173  
G21  22031658.100                        2151.238          20.684  
G23  25207983.476   132468819.430        -938.490          28.809  
G25  22549540.278   118498635.702       -3407.133          31.711    22549542.976    88489253.729       -2544.248          24.224  
G26  21378733.811   112345995.269        1919.711          32.387    21378729.913    83894730.840        1433.510          28.471  
G29  20667002.232   108605797.115       -1806.751          33.414  
G31  21883438.311   114998231.795       -2382.888          36.384  
R07  23391889.632   125218649.258        1504.472          28.488  
R15  22143783.478                        3572.868          25.286  
R17  23010673.842   123134700.696        3722.407          30.826  
R23  19587156.993   104778000.294       -2138.090          33.359  
R24  19711223.704   105404687.050        1562.009          28.699  
> 2019  8  1  8  2 54.0000000  0 25
C11  25815979.669                        2876.343          23.405  
C12  21365087.558   111253621.543        -398.194          30.673  
C13  38874663.331   202430597.160       -1187.424          26.521  
C20  26417921.853                        -790.322          25.290  
C24  22743264.366   118430138.784       -1964.632          30.390  
C25  23347122.224   121574594.599        1338.832          31.174  
C26  25399992.151                       -3732.242          18.795  
E27                                                                                                                                  24463770.284    96001085.440        1146.001          29.319  
E36                                                                                                                                  25653150.993   100668471.844       -2010.327          26.014  
G02  25408114.129   133520556.503       -3419.945          27.452  
G05  23571520.476   123869174.099         391.799          32.359  
G09  25258240.384   132732940.190         569.930          23.485    25258242.483                         425.498          22.845  
G16  23359861.005   122756871.0631       3086.443          28.170  
G21  22031248.584                        2149.185          19.082  
G23  25208155.857   132469758.321        -938.891          28.444  
G25  22550193.226   118502042.830       -3407.127          31.589    22550191.427    88491798.123       -2544.394          24.501  
G26  21378370.762   112344075.743        1919.526          32.248    21378365.366    83893297.459        1433.381          29.173  
G29  20667344.895   108607604.058       -1806.943          32.763  
G31  21883890.098   115000614.994       -2383.199          36.060  
R06  23565317.170                       -1716.383          13.422  
R07  23391607.527   125217145.345        1503.913          27.940  
R15  22143126.033   118326103.5021       3572.421          25.665  
R17  23009981.621   123130978.336        3722.360          31.123  
R23  19587550.621   104780138.796       -2138.502          33.497  
R24  19710913.718   105403125.468        1561.582          28.340  
> 2019  8  1  8  2 55.0000000  0 24
C11  25815428.051   134427701.6141       2876.701          23.206  
C12  21365164.604   111254019.582        -398.039          31.004  
C13  38874895.070   202431784.166       -1187.006          26.290  
C20  26418074.448                        -788.012          24.914  
C24  22743640.905   118432103.325       -1964.541          31.343  
C25  23346865.301   121573255.746        1338.853          29.370  
C26  25400718.848                       -3734.476          18.263  
E27                                                                                                                                  24463477.387    95999939.195        1146.245          30.101  
E36                                                                                                                                  25653663.338   100670481.808       -2009.964          26.135  
G02  25408771.873   133523975.976       -3419.473          26.976  
G05  23571450.324   123868782.276         391.823          32.784  
G09  25258132.159                         569.702          23.550    25258132.159                         425.915          22.771  
G16  23359274.611   122753784.115        3086.948          27.115  
G21  22030832.772                        2154.547          19.957  
G23  25208332.734   132470697.093        -938.771          29.522  
G25  22550840.178   118505449.652       -3406.823          31.550    22550839.878                       -2543.770          24.470  
G26  21378006.214   112342156.080        1919.663          30.721    21378000.518    83891863.850        1433.609          29.555  
G29  20667687.258   108609410.818       -1806.760          33.286  
G31  21884342.185   115002998.069       -2383.075          36.360  
R07  23391332.617   125215641.588        1503.757          27.635  
R15  22142450.001                        3573.332          24.379  
R17  23009286.402   123127255.631        3722.705          31.427  
R23  19587942.749   104782277.267       -2138.471          32.509  
R24  19710619.922   105401564.014        1561.454          29.394  
> 2019  8  1  8  2 56.0000000  0 25
C11  25814868.938                        2878.372          22.546  
C12  21365242.251   111254416.292        -396.710          30.989  
C13  38875120.514   202432969.421       -1185.255          26.233  
C20  26418223.744   137566651.4091       -788.975          24.830  
C24  22744018.644   118434066.580       -1963.255          31.599  
C25  23346608.080   121571915.554        1340.193          30.062  
C26  25401427.857                       -3731.364          18.747  
E27                                                                                                                                  24463185.689    95998791.924        1147.271          30.153  
E36                                                                                                                                  25654174.485   100672490.491       -2008.684          25.982  
G02  25409421.224                       -3416.921          27.100  
G05  23571371.479   123868389.398         392.878          33.009  
G09  25258018.538                         572.186          23.630    25258026.632    99117934.8911        426.525          22.770  
G16  23358684.919   122750695.635        3088.480          27.487  
G21  22030421.157                        2157.796          20.170  
G23  25208515.908   132471634.589        -937.497          29.658  
G25  22551491.327   118508854.928       -3405.276          31.476    22551486.531                       -2542.249          23.965  
G26  21377639.268   112340234.918        1921.163          30.492    21377635.371    83890429.260        1434.590          29.809  
G29  20668028.721   108611216.138       -1805.320          33.037  
G31  21884799.069   115005379.870       -2381.801          36.475  
R06  23566050.163                       -1704.303          15.418  
R07  23391062.205   125214136.729        1504.858          27.819  
R15  22141767.973   118318956.6801       3574.196          25.329  
R17  23008591.783   123123531.354        3724.277          31.173  
R23  19588351.367   104784414.547       -2137.280          32.464  
R24  19710344.113   105400001.367        1562.647          29.349  
> 2019  8  1  8  2 57.0000000  0 25
C11  25814317.620                        2882.025          24.003  
C12  21365316.899   111254811.891        -395.599          30.633  
C13  38875349.556   202434153.333       -1183.912          26.046  
C20  26418372.741                        -788.132          25.204  
C24  22744392.785   118436028.841       -1962.261          31.020  
C25  23346349.359   121570574.374        1341.180          30.369  
C26  25402144.062                       -3729.967          17.829  
E27                                                                                                                                  24462893.092    95997643.615        1148.309          29.459  
E36                                                                                                                                  25654686.530   100674498.282       -2007.791          26.549  
G02  25410066.077   133530810.2091      -3416.405          27.883  
G05  23571299.229   123867995.648         393.749          32.915  
G09  25257911.812   132731227.2731        571.905          24.264    25257918.107                         427.538          22.158  
G16  23358095.227   122747605.729        3089.906          27.753  
G21  22030010.141                        2160.112          20.611  
G23  25208693.085   132472571.140        -936.551          29.151  
G25  22552137.080   118512259.022       -3404.094          31.921    22552135.282                       -2541.765          23.624  
G26  21377268.725   112338312.754        1922.163          32.045    21377268.425    83888993.782        1435.478          28.972  
G29  20668374.082   108613020.423       -1804.285          33.144  
G31  21885252.355   115007760.706       -2380.836          36.388  
R06  23566310.683                       -1698.498          15.362  
R07  23390783.398   125212631.101        1505.629          28.442  
R15  22141100.935                        3580.391          24.901  
R17  23007885.772   123119805.744        3725.610          31.567  
R23  19588738.099   104786550.860       -2136.312          32.666  
R24  19710033.828   105398437.895        1563.472          29.308  
> 2019  8  1  8  2 58.0000000  0 25
C11  25813765.702                        2881.991          24.010  
C12  21365392.447   111255207.390        -395.498          30.575  
C13  38875575.899   202435336.674       -1183.341          26.448  
C20  26418524.436                        -787.504          24.764  
C24  22744769.624   118437991.089       -1962.248          30.567  
C25  23346093.636   121569233.087        1341.287          29.834  
C26  25402850.672                       -3732.246          17.702  
E27                                                                                                                                  24462600.494    95996495.281        1148.335          29.595  
E36                                                                                                                                  25655197.077   100676505.833       -2007.551          26.599  
G02  25410721.424   133534226.177       -3415.967          27.896  
G05  23571226.380   123867601.975         393.673          32.950  
G09  25257810.781   132730655.154         572.118          23.651    25257805.685                         427.550          22.019  
G16  23357507.634   122744515.457        3090.271          27.394  
G21  22029601.224                        2165.389          19.431  
G23  25208872.061   132473507.721        -936.581          28.869  
G25  22552783.433   118515662.874       -3403.852          32.113    22552781.934                       -2540.982          22.849  
G26  21376905.376   112336390.350        1922.404          31.908    21376902.678    83887558.368        1435.414          29.133  
G29  20668717.645   108614824.571       -1804.148          32.874  
G31  21885703.543   115010141.526       -2380.820          36.339  
R06  23566590.689                       -1701.105          15.659  
R07  23390496.496   125211125.679        1505.422          28.731  
R15  22140441.691   118311805.8831       3575.458          25.037  
R17  23007192.952   123116079.804        3725.940          31.669  
R23  19589144.018   104788687.259       -2136.399          32.626  
R24  19709740.031   105396874.514        1563.380          29.352  
> 2019  8  1  8  2 59.0000000  0 25
C11  25813216.182                        2882.604          23.305  
C12  21365466.495   111255601.676        -394.287          30.265  
C13  38875801.043   202436518.518       -1181.844          27.225  
C20  26418681.527   137569014.4291       -786.991          25.572  
C24  22745149.161   118439952.146       -1961.056          30.164  
C25  23345833.716   121567890.658        1342.429          30.229  
C26  25403587.862                       -3727.012          19.072  
E27                                                                                                                                  24462309.096    95995345.865        1149.416          29.130  
E36                                                                                                                                  25655708.523   100678512.214       -2006.382          26.677  
G02  25411371.074   133537640.671       -3414.494          28.360  
G05  23571149.333   123867207.322         394.653          32.208  
G09  25257699.858                         573.127          23.585    25257697.460    99116652.8331        427.911          22.563  
G16  23356918.842   122741423.758        3091.699          27.852  
G21  22029176.718                        2159.252          20.704  
G23  25209051.637   132474443.168        -935.447          28.919  
G25  22553428.586   118519065.315       -3402.441          32.268    22553431.584                       -2541.220          24.258  
G26  21376537.831   112334466.742        1923.608          32.742    21376537.531    83886121.835        1436.533          28.167  
G29  20669061.806   108616627.438       -1802.866          32.508  
G31  21886157.129   115012521.202       -2379.676          35.893  
R06  23566924.358                       -1699.849          15.844  
R07  23390211.993   125209619.349        1506.330          28.815  
R15  22139764.760   118308229.018        3576.866          25.661  
R17  23006494.136   123112352.350        3727.453          31.221  
R23  19589538.245   104790822.479       -2135.220          32.484  
R24  19709459.425                        1564.996          28.857  
> 2019  8  1  8  3  0.0000000  0 25
C11  25812658.568                        2884.027          22.857  
C12  21365541.743   111255994.808        -393.131          30.134  
C13  38876026.787   202437698.844       -1180.326          27.228  
C20  26418830.524   137569800.266        -785.837          26.184  
C24  22745524.501   118441912.150       -1960.004          30.109  
C25  23345576.793   121566547.157        1343.501          30.732  
C26  25404298.970                       -3725.195          19.846  
E27                                                                                                                                  24462014.400    95994195.479        1150.386          28.908  
E36                                                                                                                                  25656221.467   100680517.686       -2005.471          26.612  
G02  25412021.024   133541053.787       -3413.116          28.534  
G05  23571075.584   123866811.772         395.550          32.360  
G09  25257585.338   132729508.3311        573.961          24.384    25257585.937                         429.081          22.149  
G16  23356330.349   122738330.642        3093.116          27.776  
G21  22028768.101                        2159.623          20.302  
G23  25209229.713   132475377.608        -934.440          28.871  
G25  22554076.438   118522466.496       -3401.181          32.355    22554080.335                       -2539.726          23.546  
G26  21376172.384   112332541.889        1924.854          33.208    21376169.985    83884684.480        1437.355          27.656  
G29  20669402.370   108618429.153       -1801.715          32.896  
G31  21886607.117   115014899.821       -2378.619          36.108  
R06  23567270.018                       -1699.156          17.397  
R07  23389928.689   125208112.102        1507.248          28.719  
R15  22139105.516   118304650.834        3578.183          25.980  
R17  23005811.208   123108623.628        3728.722          31.211  
R23  19589929.174   104792956.808       -2134.328          32.546  
R24  19709162.631   105393744.7441       1565.341          28.758  
> 2019  8  1  8  3  1.0000000  0 25
C11  25812104.852   134410414.6331       2883.716          23.365  
C12  21365619.389   111256387.592        -392.784          30.817  
C13  38876256.728   202438878.516       -1179.672          26.969  
C20  26418984.618   137570585.969        -785.703          25.492  
C24  22745899.242   118443871.966       -1959.816          30.636  
C25  23345319.572   121565203.378        1343.779          30.042  
C26  25405010.377                       -3723.977          20.637  
E27                                                                                                                                  24461720.903    95993044.846        1150.633          29.982  
E36                                                                                                                                  25656729.616   100682522.653       -2004.968          26.855  
G02  25412665.278   133544466.238       -3412.450          28.051  
G05  23570999.137   123866416.116         395.656          32.769  
G09  25257475.014   132728934.185         574.146          24.169    25257478.312                         427.516          22.652  
G16  23355743.955   122735236.950        3093.692          27.841  
G21  22028348.092                        2162.416          19.454  
G23  25209405.692   132476311.838        -934.230          29.325  
G25  22554724.889   118525867.176       -3400.680          32.428    22554725.788                       -2539.524          23.482  
G26  21375806.937   112330616.781        1925.108          32.284    21375805.138    83883246.915        1437.565          28.998  
G29  20669745.333   108620230.558       -1801.405          33.085  
G31  21887063.401   115017278.266       -2378.444          36.420  
R06  23567569.511                       -1698.670          17.893  
R07  23389653.180   125206604.884        1507.218          28.401  
R15  22138428.885   118301072.329        3578.506          26.090  
R17  23005109.994   123104894.416        3729.212          31.726  
R23  19590352.181   104795091.000       -2134.193          32.793  
R24  19708869.434   105392179.323        1565.421          28.901  
> 2019  8  1  8  3  2.0000000  0 25
C11  25811556.531                        2884.171          23.725  
C12  21365694.338   111256780.667        -393.075          30.651  
C13  38876479.473                       -1179.827          26.791  
C20  26419132.115                        -786.485          25.556  
C24  22746274.282   118445831.972       -1960.007          30.836  
C25  23345059.652   121563859.929        1343.449          29.916  
C26  25405728.380                       -3728.373          19.457  
E27                                                                                                                                  24461427.706    95991894.192        1150.653          29.786  
E36                                                                                                                                  25657241.961   100684527.758       -2005.105          26.584  
G02  25413318.526   133547878.598       -3412.360          27.856  
G05  23570923.289   123866020.932         395.184          32.781  
G09  25257364.390   132728360.445         573.740          24.040    25257370.386    99115366.9351        428.700          22.878  
G16  23355154.863   122732143.254        3093.696          27.420  
G21  22027954.464                        2161.230          20.011  
G23  25209582.569   132477246.376        -934.538          29.118  
G25  22555370.342   118529267.906       -3400.731          32.176    22555372.441                       -2540.102          24.808  
G26  21375440.890   112328691.798        1924.983          32.069    21375437.892                        1437.513          28.933  
G29  20670089.495   108622032.174       -1801.617          33.210  
G31  21887513.989   115019656.950       -2378.685          36.123  
R06  23567897.184                       -1702.093          16.221  
R07  23389363.880   125205098.185        1506.698          28.504  
R15  22137765.144                        3577.967          26.124  
R17  23004411.178   123101165.188        3729.228          31.528  
R23  19590730.220   104797225.486       -2134.486          32.415  
R24  19708580.434   105390614.384        1564.939          28.848  
> 2019  8  1  8  3  3.0000000  0 25
C11  25810997.119                        2886.372          22.713  
C12  21365769.586   111257173.596        -392.929          31.109  
C13  38876705.517   202441237.1531      -1179.107          26.142  
C20  26419287.708   137572158.1351       -786.121          25.059  
C24  22746652.020   118447791.985       -1960.013          31.261  
C25  23344802.430   121562516.428        1343.501          30.252  
C26  25406448.182                       -3729.708          19.541  
E27                                                                                                                                  24461134.509    95990743.426        1150.766          30.289  
E36                                                                                                                                  25657753.107   100686532.545       -2004.788          26.249  
G02  25413969.975   133551290.590       -3411.992          27.638  
G05  23570852.538   123865625.845         395.087          33.042  
G09  25257257.664   132727786.707         573.738          24.510    25257262.161                         429.256          23.397  
G16  23354564.571   122729049.196        3094.058          27.443  
G21  22027537.753                        2158.232          19.214  
G23  25209764.243   132478180.920        -934.543          29.580  
G25  22556016.994   118532668.483       -3400.576          31.445    22556019.692    88514667.8971      -2539.326          24.503  
G26  21375074.244   112326766.661        1925.137          31.310    21375072.145    83880371.7641       1437.589          29.802  
G29  20670433.956   108623833.643       -1801.468          33.161  
G31  21887964.278   115022035.688       -2378.737          36.111  
R06  23568285.715                       -1707.753          17.508  
R07  23389079.677   125203591.699        1506.487          28.098  
R15  22137087.014   118293915.1401       3578.711          26.297  
R17  23003707.265   123097435.607        3729.581          31.204  
R23  19591132.541   104799360.045       -2134.559          32.562  
R24  19708285.438   105389049.505        1564.879          28.723  
> 2019  8  1  8  3  4.0000000  0 25
C11  25810444.001                        2890.756          22.606  
C12  21365843.934   111257565.161        -391.565          30.569  
C13  38876933.359   202442414.522       -1177.369          26.584  
C20  26419433.407   137572942.939        -784.805          24.899  
C24  22747028.260   118449750.712       -1958.727          30.798  
C25  23344543.109   121561171.652        1344.776          29.779  
C26  25407151.495                       -3729.071          19.425  
E27                                                                                                                                  24460841.012    95989591.612        1151.814          29.500  
E36                                                                                                                                  25658263.953   100688536.141       -2003.596          25.776  
G02  25414623.222   133554700.853       -3410.263          26.406  
G05  23570774.293   123865229.623         396.222          33.336  
G09  25257149.439                         575.464          24.288    25257150.638                         430.797          22.014  
G16  23353970.982   122725953.482        3095.714          27.892  
G21  22027128.836                        2161.634          20.915  
G23  25209937.523   132479114.223        -933.303          29.334  
G25  22556666.045   118536067.510       -3399.027          30.857    22556664.846                       -2537.392          24.771  
G26  21374706.698   112324840.210        1926.451          31.318    21374705.200    83878933.211        1438.553          29.051  
G29  20670780.516   108625633.758       -1800.116          33.740  
G31  21888422.061   115024413.110       -2377.422          35.619  
R06  23568558.826                       -1706.641          16.081  
R07  23388809.264                        1508.205          26.749  
R15  22136430.768   118290335.137        3580.003          26.574  
R17  23003009.348   123093704.432        3731.174          30.795  
R23  19591515.676   104801493.383       -2133.337          31.840  
R24  19707992.541   105387483.564        1565.941          28.616  
> 2019  8  1  8  3  5.0000000  0 25
C11  25809886.687                        2889.606          22.595  
C12  21365920.081   111257955.373        -390.212          29.970  
C13  38877158.503                       -1175.375          24.666  
C20  26419582.404                        -783.552          24.777  
C24  22747403.001   118451708.147       -1957.435          30.756  
C25  23344282.589   121559825.668        1345.985          29.650  
C26  25407871.597                       -3719.240          18.997  
E27                                                                                                                                  24460546.916    95988438.562        1153.050          28.722  
E36                                                                                                                                  25658775.399   100690538.512       -2002.371          25.232  
G02  25415266.877                       -3408.294          25.343  
G05  23570701.143   123864832.280         397.343          32.374  
G09  25257037.916                         577.743          23.273    25257041.814                         431.870          21.609  
G16  23353382.490   122722856.270        3097.211          28.306  
G21  22026713.623                        2164.376          21.303  
G23  25210115.900   132480046.297        -932.074          29.120  
G25  22557312.098   118539465.019       -3397.510          29.883    22557313.897    88519743.2481      -2537.129          23.300  
G26  21374339.453   112322912.424        1927.785          32.185    21374338.553    83877493.522        1439.689          28.423  
G29  20671118.682   108627432.454       -1798.696          33.129  
G31  21888872.949   115026789.330       -2376.219          35.941  
R06  23568898.791                       -1702.905          18.687  
R07  23388515.468                        1509.831          24.735  
R15  22135756.535   118286753.583        3581.554          27.315  
R17  23002315.928   123089971.800        3732.632          30.890  
R23  19591916.498   104803625.544       -2132.161          30.909  
R24  19707696.046   105385916.437        1567.127          28.419  
> 2019  8  1  8  3  6.0000000  0 25
C11  25809336.568                        2888.723          22.808  
C12  21365994.730   111258344.811        -389.438          30.739  
C13  38877385.146   202444765.2841      -1174.604          26.317  
C20  26419737.696                        -782.887          25.567  
C24  22747779.540   118453664.873       -1956.725          30.962  
C25  23344026.866   121558478.766        1346.902          30.219  
C26  25408582.105                       -3711.712          18.160  
E27                                                                                                                                  24460254.318    95987284.924        1153.638          29.973  
E36                                                                                                                                  25659282.948   100692540.127       -2001.615          24.872  
G02  25415919.525   133561517.2631      -3407.647          27.133  
G05  23570624.096   123864434.342         397.937          33.106  
G09  25256933.289                         578.405          23.556    25256931.790                         430.797          22.223  
G16  23352792.498   122719757.990        3098.281          27.372  
G21  22026305.306                        2165.154          20.644  
G23  25210291.279   132480977.731        -931.434          29.073  
G25  22557958.151   118542861.597       -3396.578          29.951    22557957.851                       -2535.093          23.317  
G26  21373971.907   112320983.627        1928.798          31.855    21373971.308    83876053.278        1440.245          28.995  
G29  20671461.645   108629230.392       -1797.938          33.830  
G31  21889325.335   115029164.827       -2375.497          36.151  
R06  23569238.156                       -1703.472          17.915  
R07  23388244.455   125199064.5121       1509.109          27.279  
R15  22135075.406   118283171.022        3582.561          26.289  
R17  23001615.613   123086238.074        3733.726          31.231  
R23  19592327.514   104805756.915       -2131.371          31.541  
R24  19707395.354   105384348.762        1567.674          29.107  
> 2019  8  1  8  3  7.0000000  0 25
C11  25808780.153                        2889.954          22.712  
C12  21366069.678   111258733.678        -388.867          30.885  
C13  38877611.190   202445938.994       -1173.710          27.354  
C20  26419885.194   137575292.1201       -782.490          25.125  
C24  22748155.480   118455621.102       -1956.229          30.906  
C25  23343766.946   121557131.411        1347.354          30.229  
C26  25409304.904                       -3716.504          19.727  
E27                                                                                                                                  24459958.723    95986130.700        1154.224          29.568  
E36                                                                                                                                  25659793.794   100694541.148       -2001.021          26.876  
G02  25416566.777   133564923.964       -3406.701          28.261  
G05  23570550.647   123864036.015         398.327          33.914  
G09  25256819.967                         577.423          23.600    25256819.967                         431.479          21.408  
G16  23352202.806                        3099.653          27.559  
G21  22025892.492                        2166.197          20.941  
G23  25210469.955   132481908.613        -930.882          28.538  
G25  22558603.304   118546257.435       -3395.838          30.976    22558607.201    88524815.4421      -2535.915          23.176  
G26  21373604.661   112319054.310        1929.317          31.395    21373604.362    83874612.537        1440.741          29.572  
G29  20671802.509   108631027.687       -1797.294          33.733  
G31  21889773.525   115031539.800       -2374.974          36.227  
R06  23569520.860                       -1705.716          16.866  
R07  23387956.355   125197555.157        1509.355          28.803  
R15  22134408.068                        3583.278          26.085  
R17  23000920.994   123082503.547        3734.527          30.591  
R23  19592731.634   104807887.966       -2131.051          32.353  
R24  19707107.254   105382780.672        1568.090          28.608  
> 2019  8  1  8  3  8.0000000  0 25
C11  25808225.837                        2892.061          23.978  
C12  21366146.125   111259121.760        -388.082          31.154  
C13  38877837.533   202447111.553       -1172.559          27.506  
C20  26420035.990   137576074.005        -781.885          25.354  
C24  22748530.820   118457576.655       -1955.554          30.853  
C25  23343508.525   121555783.460        1347.951          30.028  
C26  25410012.115                       -3719.881          19.069  
E27                                                                                                                                  24459664.926    95984975.875        1154.825          29.651  
E36                                                                                                                                  25660302.242   100696541.533       -2000.385          26.807  
G02  25417207.733   133568329.628       -3405.664          28.165  
G05  23570477.498   123863637.286         398.729          34.125  
G09  25256711.742   132724904.5851        577.564          23.475    25256712.042                         431.705          22.756  
G16  23351614.913   122713558.6671       3100.080          27.582  
G21  22025491.070                        2163.032          20.985  
G23  25210645.034   132482838.998        -930.386          28.783  
G25  22559249.956   118549652.393       -3394.958          30.952    22559249.656                       -2535.118          23.864  
G26  21373236.516   112317124.218        1930.092          31.104    21373237.116    83873171.247        1441.290          28.650  
G29  20672146.970   108632824.282       -1796.595          33.816  
G31  21890226.512   115033914.158       -2374.357          36.235  
R06  23569870.418                       -1702.254          17.873  
R07  23387681.745   125196045.300        1509.858          29.288  
R15  22133749.124   118276003.7911       3583.975          26.727  
R17  23000221.578   123078768.051        3735.496          30.773  
R23  19593131.857   104810018.438       -2130.473          32.694  
R24  19706814.956   105381212.119        1568.553          28.254  
> 2019  8  1  8  3  9.0000000  0 25
C11  25807666.125   134387313.0171       2891.370          23.908  
C12  21366219.274   111259509.952        -388.192          31.125  
C13  38878062.377   202448283.343       -1171.790          27.717  
C20  26420183.188                        -781.613          25.036  
C24  22748907.359   118459532.351       -1955.696          31.298  
C25  23343249.505   121554435.584        1347.876          30.279  
C26  25410729.518                       -3719.342          19.845  
E27                                                                                                                                  24459370.230    95983820.987        1154.888          30.177  
E36                                                                                                                                  25660813.089   100698541.693       -2000.160          26.910  
G02  25417860.082   133571735.116       -3405.488          27.762  
G05  23570400.152   123863238.746         398.540          33.229  
G09  25256603.217                         579.982          22.818    25256600.519    99112355.1231        431.202          23.877  
G16  23351030.318   122710458.306        3100.362          27.702  
G21  22025080.954                        2170.443          21.684  
G23  25210824.909   132483769.425        -930.426          28.838  
G25  22559896.009   118553047.237       -3394.844          31.630    22559899.606                       -2535.337          24.639  
G26  21372870.470   112315194.200        1930.017          31.331    21372869.270    83871729.940        1441.307          29.798  
G29  20672489.333   108634620.890       -1796.609          33.337  
G31  21890679.498   115036288.683       -2374.525          36.291  
R06  23570228.370                       -1699.023          19.288  
R07  23387395.743   125194535.932        1509.368          28.645  
R15  22133084.484   118272419.729        3584.063          26.793  
R17  22999526.059   123075032.452        3735.599          30.527  
R23  19593527.883   104812149.108       -2130.670          32.877  
R24  19706531.952   105379643.853        1568.266          28.862  
> 2019  8  1  8  3 10.0000000  0 25
C11  25807117.205                        2892.397          23.608  
C12  21366296.021   111259899.542        -389.590          31.149  
C13  38878288.121   202449456.737       -1173.394          26.600  
C20  26420337.581   137577639.7261       -783.630          24.999  
C24  22749282.400   118461489.509       -1957.158          30.907  
C25  23342988.985   121553089.259        1346.325          30.023  
C26  25411449.619                       -3722.675          20.611  
E27                                                                                                                                  24459076.134    95982667.117        1153.870          30.080  
E36                                                                                                                                  25661322.436   100700542.873       -2001.180          26.646  
G02  25418510.931   133575141.800       -3406.684          26.637  
G05  23570322.805   123862841.992         396.755          33.833  
G09  25256492.594                         575.324          23.137    25256493.493    99111925.237         429.886          23.687  
G16  23350439.127   122707359.233        3099.072          26.721  
G21  22024663.643                        2164.452          22.520  
G23  25211001.487   132484701.527        -932.102          29.096  
G25  22560542.062   118556443.450       -3396.214          32.219    22560543.261    88532421.9351      -2536.210          25.901  
G26  21372504.123   112313265.581        1928.619          31.959    21372503.823    83870289.826        1440.114          29.579  
G29  20672829.298   108636418.959       -1798.069          33.994  
G31  21891132.784   115038664.750       -2376.067          36.514  
R06  23570480.796                       -1702.220          19.711  
R07  23387120.234   125193028.379        1507.553          28.013  
R15  22132412.650                        3584.604          26.049  
R17  22998828.442   123071298.258        3734.195          30.921  
R23  19593929.005   104814281.489       -2132.381          32.963  
R24  19706238.455   105378077.263        1566.590          29.540  
> 2019  8  1  8  3 11.0000000  0 25
C11  25806559.591                        2888.893          22.550  
C12  21366371.569   111260290.420        -390.878          31.793  
C13  38878513.565   202450630.864       -1174.127          28.074  
C19  26040593.772                        1511.474          11.084  
C20  26420482.680                        -786.260          25.516  
C24  22749658.639   118463448.120       -1958.610          29.340  
C25  23342731.463   121551744.186        1345.073          30.857  
C26  25412166.723                       -3724.151          17.618  
E27                                                                                                                                  24458781.738    95981514.049        1153.068          30.399  
E36                                                                                                                                  25661832.683   100702544.712       -2001.840          24.842  
G02  25419151.588   133578549.294       -3407.494          26.304  
G05  23570249.056   123862446.547         395.445          33.266  
G09  25256393.662                         574.957          20.604    25256384.669    99111496.311         428.926          22.150  
G16  23349845.538   122704261.036        3098.197          27.118  
G21  22024248.130                        2154.277          21.690  
G23  25211180.163   132485634.833        -933.306          29.017  
G25  22561188.114   118559840.701       -3397.250          32.269    22561189.613    88534958.804       -2536.869          26.041  
G26  21372135.678   112311338.155        1927.426          33.757    21372135.978    83868850.453        1439.372          30.344  
G29  20673171.661   108638218.224       -1799.265          36.724  
G31  21891585.471   115041042.228       -2377.478          35.466  
R07  23386849.221   125191522.248        1506.130          26.666  
R15  22131742.314   118265255.3451       3581.751          26.288  
R17  22998120.932   123067565.031        3733.226          30.313  
R23  19594322.633   104816415.187       -2133.698          33.914  
R24  19705946.757   105376512.263        1565.001          27.880  
> 2019  8  1  8  3 12.0000000  0 26
C11  25806005.874                        2888.322          22.401  
C12  21366447.116   111260682.101        -391.681          31.840  
C13  38878736.911                       -1176.177          27.215  
C19  26040287.384                        1516.404          12.833  
C20  26420635.575   137579210.7501       -785.982          25.798  
C24  22750034.279   118465407.474       -1959.354          28.015  
C25  23342473.642   121550400.043        1344.143          31.056  
C26  25412881.428                       -3718.403          18.795  
E02                                                                                                                                  26764471.742                       -2384.886          27.505  
E27                                                                                                                                  24458488.541    95980361.651        1152.399          30.117  
E36                                                                                                                                  25662343.829   100704547.127       -2002.415          26.225  
G02  25419800.039   133581957.514       -3408.220          26.446  
G05  23570170.810   123862052.372         394.175          33.172  
G09  25256282.140                         570.778          18.840    25256275.244    99111068.309         428.002          22.175  
G16  23349258.245   122701163.538        3097.498          26.480  
G21  22023839.213                        2164.990          21.140  
G23  25211354.343                        -935.742          28.809  
G25  22561833.867   118563238.747       -3398.047          35.407    22561836.266    88537496.405       -2537.600          28.914  
G26  21371773.829   112309411.669        1926.486          33.585    21371769.332    83867411.796        1438.657          30.728  
G29  20673515.523   108640018.394       -1800.170          34.709  
G31  21892036.658   115043420.763       -2378.535          31.970  
R07  23386512.554                        1503.062          26.436  
R15  22131050.692                        3578.071          24.263  
R17  22997427.212   123063832.500        3732.531          29.287  
R23  19594722.856   104818550.025       -2134.838          33.216  
R24  19705642.767   105374948.415        1563.848          26.306  
> 2019  8  1  8  3 13.0000000  0 26
C11  25805462.050                        2889.143          21.992  
C12  21366518.467   111261074.464        -392.363          31.141  
C13  38878964.453   202452981.2701      -1175.100          27.500  
C19  26039986.093                        1512.949          12.902  
C20  26420785.771                        -786.709          24.410  
C24  22750412.617   118467367.612       -1960.138          35.218  
C25  23342212.822   121549056.648        1343.395          29.650  
E02                                                                                                                                  26765082.119                       -2383.274          29.705  
E27                                                                                                                                  24458195.044    95979209.548        1152.103          30.326  
E36                                                                                                                                  25662853.776   100706549.881       -2002.753          25.385  
G02  25420453.286   133585366.133       -3408.619          26.664  
G05  23570098.860   123861659.066         393.306          32.545  
G09  25256164.921                         567.179          17.316    25256163.722                         426.612          21.476  
G16  23348667.354                        3097.018          27.748  
G21  22023426.099   115733914.7471       2161.604          29.806  
G23  25211531.220   132487504.4931       -934.642          27.972  
G25  22562481.419   118566637.296       -3398.548          35.896    22562483.518    88540034.239       -2537.834          28.032  
G26  21371405.384   112307485.736        1925.933          32.793    21371403.285    83865973.674        1438.122          31.704  
G29  20673855.787   108641819.162       -1800.768          35.763  
G31  21892489.345   115045799.663       -2378.900          37.305  
R06  23571437.733                       -1711.553          22.699  
R07  23386263.427   125188513.7591       1503.729          26.438  
R15  22130386.952                        3580.546          25.050  
R17  22996734.092                        3731.530          25.367  
R23  19595119.481   104820685.715       -2135.690          33.820  
R24  19705355.866   105373385.359        1563.055          29.783  
> 2019  8  1  8  3 14.0000000  0 27
C11  25804909.533                        2889.445          21.611  
C12  21366593.415   111261467.627        -393.163          31.031  
C13  38879188.698   202454156.863       -1175.593          27.368  
C19  26039710.883                        1503.095          10.384  
C20  26420938.065                        -786.808          24.889  
C24  22750788.557   118469328.603       -1960.991          36.113  
C25  23341955.301   121547714.093        1342.556          29.104  
C26  25414309.939   132338922.5901      -3722.963          24.181  
E02                                                                                                                                  26765689.199   105034298.7271      -2382.143          30.144  
E27                                                                                                                                  24457901.247    95978057.907        1151.641          29.985  
E36                                                                                                                                  25663363.423   100708552.935       -2003.054          25.270  
G02  25421102.337   133588775.116       -3408.983          26.349  
G05  23570022.713   123861266.722         392.344          32.217  
G09  25256040.207                         568.624          16.789    25256056.996                         420.120          21.922  
G16  23348076.763   122694969.9541       3096.495          27.777  
G21  22023013.285   115731753.869        2160.879          31.645  
G23  25211712.295   132488440.543        -936.050          27.775  
G25  22563128.371   118570036.496       -3399.201          35.825    22563129.271    88542572.618       -2538.380          27.402  
G26  21371035.140   112305560.531        1925.206          32.566    21371037.838    83864535.977        1437.697          31.769  
G29  20674197.251   108643620.766       -1801.604          35.969  
G31  21892942.931   115048179.721       -2380.058          38.124  
R06  23571771.102                       -1710.788          21.958  
R07  23385990.915   125187010.945        1502.814          25.839  
R15  22129728.308                        3579.476          25.803  
R17  22996063.756                        3733.934          22.305  
R23  19595523.302   104822822.407       -2136.692          33.966  
R24  19705066.566   105371823.400        1561.959          31.046  
> 2019  8  1  8  3 15.0000000  0 26
C11  25804361.812                        2891.036          19.941  
C12  21366668.963   111261861.624        -393.997          30.717  
C13  38879415.940   202455332.439       -1175.576          27.352  
C20  26421092.159   137581573.9461       -788.744          25.731  
C24  22751163.897   118471290.719       -1962.116          32.903  
C25  23341701.077   121546372.481        1341.611          29.952  
C26  25415021.347                       -3724.234          23.617  
E02                                                                                                                                  26766295.979   105036681.198       -2382.471          30.082  
E27                                                                                                                                  24457609.249    95976906.903        1151.004          30.316  
E36                                                                                                                                  25663874.569   100710556.553       -2003.619          24.726  
G02  25421749.889   133592184.852       -3409.737          26.711  
G05  23569947.765   123860875.565         391.157          33.572  
G09  25255955.066                         573.609          19.916    25255949.370                         424.478          22.324  
G16  23347495.465   122691874.125        3095.829          27.351  
G21  22022602.569   115729593.880        2159.989          27.662  
G23  25211888.273   132489377.623        -937.079          27.057  
G25  22563777.122   118573436.460       -3399.964          36.346    22563776.523    88545111.536       -2538.917          28.658  
G26  21370670.593   112303636.280        1924.251          32.287    21370671.792    83863098.999        1436.978          31.267  
G29  20674541.113   108645423.207       -1802.441          35.267  
G31  21893391.121   115050560.658       -2380.937          34.326  
R06  23572087.383                       -1716.224          20.835  
R07  23385716.305                        1501.005          25.987  
R15  22129049.278                        3577.982          24.151  
R17  22995363.141                        3730.988          25.163  
R23  19595931.319   104824960.085       -2137.677          34.200  
R24  19704770.671   105370262.566        1560.834          29.557  
> 2019  8  1  8  3 16.0000000  0 26
C11  25803783.812                        2885.859          20.343  
C12  21366749.307   111262256.310        -394.686          30.716  
C13  38879644.982   202456508.719       -1176.279          27.558  
C19  26039140.978                        1508.793           9.821  
C20  26421245.352   137582363.388        -789.442          26.241  
C24  22751541.935   118473253.391       -1962.672          29.805  
C25  23341442.056   121545031.524        1340.957          29.297  
C26  25415736.052                       -3725.111          20.112  
E02                                                                                                                                  26766902.159   105039064.081       -2382.883          27.157  
E27                                                                                                                                  24457315.153    95975756.311        1150.592          30.420  
E36                                                                                                                                  25664384.816   100712560.463       -2003.910          23.811  
G02  25422400.438   133595594.808       -3409.956          26.138  
G05  23569871.617   123860485.157         390.408          33.587  
G09  25255839.646                         576.743          19.756    25255841.145                         425.485          21.438  
G16  23346903.675   122688778.623        3095.502          26.902  
G23  25212060.953   132490315.415        -937.792          27.511  
G25  22564424.974   118576836.845       -3400.385          35.696    22564424.674    88547650.694       -2539.158          28.887  
G26  21370305.745   112301712.470        1923.810          31.946    21370304.246    83861662.480        1436.520          30.626  
G29  20674881.677   108647226.275       -1803.067          35.107  
G31  21893848.004   115052942.402       -2381.743          37.757  
R06  23572393.472                       -1712.947          21.509  
R07  23385450.090   125184008.9541       1500.546          25.837  
R15  22128379.841                        3577.264          23.316  
R17  22994656.231   123048904.4231       3730.206          31.479  
R23  19596331.542   104827098.574       -2138.489          33.569  
R24  19704491.864   105368702.510        1560.056          30.260  
> 2019  8  1  8  3 17.0000000  0 26
C11  25803229.496                        2886.723          22.979  
C12  21366823.656   111262650.982        -394.672          31.283  
C13  38879865.629                       -1176.702          27.392  
C20  26421394.349   137583153.024        -789.635          26.095  
C24  22751918.475   118475216.095       -1962.704          29.490  
C25  23341184.834   121543690.773        1340.751          29.154  
C26  25416451.057                       -3722.524          16.783  
E02                                                                                                                                  26767509.539   105041447.304       -2383.222          22.718  
E27                                                                                                                                  24457022.556    95974605.654        1150.657          30.131  
E36                                                                                                                                  25664895.662   100714564.270       -2003.807          25.299  
G02  25423046.491   133599004.533       -3409.725          26.130  
G05  23569797.868   123860095.103         390.054          32.681  
G09  25255731.721                         574.537          16.915    25255731.421                         422.801          21.891  
G16  23346309.486   122685682.828        3095.795          27.642  
G21  22021781.438                        2159.921          23.977  
G23  25212244.726                        -938.475          25.906  
G25  22565070.427   118580237.119       -3400.274          33.936    22565071.626    88550190.827       -2540.133          26.038  
G26  21369940.898   112299788.854        1923.616          34.437    21369937.900    83860226.036        1436.444          29.676  
G29  20675226.439   108649029.376       -1803.101          35.966  
G31  21894299.792   115055324.290       -2381.889          37.261  
R06  23572727.141                       -1713.301          20.799  
R07  23385167.385                        1500.428          25.914  
R15  22127696.614                        3579.107          20.781  
R17  22993948.121   123045174.075        3730.348          32.383  
R23  19596723.071   104829237.331       -2138.757          33.690  
R24  19704192.371   105367142.857        1559.653          29.601  
> 2019  8  1  8  3 18.0000000  0 27
C11  25802679.677                        2886.690          22.720  
C12  21366899.803   111263046.418        -395.436          31.104  
C13  38880094.671   202458861.7241      -1176.501          26.948  
C19  26038565.076                        1507.264          11.347  
C20  26421548.742   137583943.528        -790.504          26.947  
C24  22752294.714   118477179.876       -1963.781          28.650  
C25  23340927.312   121542350.734        1340.040          29.749  
C26  25417163.064                       -3718.741          13.495  
E02                                                                                                                                  26768115.719                       -2392.176          19.357  
E27                                                                                                                                  24456728.759    95973455.509        1150.145          30.115  
E36                                                                                                                                  25665405.909   100716568.636       -2004.366          26.053  
G02  25423696.441                       -3410.877          26.227  
G05  23569725.618   123859706.094         389.009          32.204  
G09  25255620.498                         566.407          18.529    25255625.894    99108517.2021        424.404          20.030  
G16  23345721.593   122682587.666        3095.161          27.809  
G21  22021370.422                        2158.027          23.860  
G23  25212418.006   132492192.9451       -938.984          25.841  
G25  22565716.779   118583638.186       -3401.066          32.357    22565719.477                       -2541.676          21.642  
G26  21369571.553   112297865.890        1922.964          35.316    21369572.753    83858790.117        1435.919          30.216  
G29  20675568.502   108650833.272       -1803.896          36.602  
G31  21894754.577   115057707.008       -2382.718          37.390  
R06  23573025.434                       -1715.771          21.030  
R07  23384881.683                        1498.257          24.769  
R15  22127057.457                        3577.255          20.490  
R17  22993244.808   123041444.174        3729.901          31.588  
R23  19597121.195   104831376.852       -2139.521          32.304  
R24  19703897.076   105365584.199        1558.658          28.923  
> 2019  8  1  8  3 19.0000000  0 25
C11  25802126.559                        2888.233          21.540  
C12  21366974.751   111263442.543        -396.125          30.486  
C13  38880319.215   202460038.502       -1176.778          26.314  
C20  26421700.437   137584734.730        -791.203          25.928  
C24  22752670.054   118479144.201       -1964.325          28.872  
C25  23340669.491   121541011.523        1339.211          29.188  
E02                                                                                                                                  26768726.097                       -2384.543          22.360  
E27                                                                                                                                  24456434.962    95972305.653        1149.855          29.800  
E36                                                                                                                                  25665916.456   100718573.047       -2004.412          23.982  
G02  25424343.993   133605825.3731      -3410.528          25.629  
G05  23569650.371   123859317.885         388.209          32.976  
G09  25255518.568                         565.950          16.443    25255514.371                         423.226          22.073  
G16  23345132.801   122679492.816        3094.851          28.129  
G21  22020956.109                        2156.313          22.532  
G23  25212604.477   132493132.086        -939.141          26.525  
G25  22566365.830   118587039.589       -3401.404          33.838    22566365.830    88555269.5791      -2539.924          26.960  
G26  21369207.306   112295943.563        1922.327          33.226    21369206.106    83857354.541        1435.577          30.268  
G29  20675907.867   108652637.692       -1804.420          34.104  
G31  21895205.465   115060090.544       -2383.536          34.874  
R06  23573355.805                       -1714.920          21.239  
R07  23384592.983                        1497.564          24.881  
R15  22126375.729                        3574.705          21.055  
R17  22992549.889   123037714.785        3729.389          30.814  
R23  19597520.819   104833517.476       -2140.623          32.546  
R24  19703599.382   105364026.490        1557.709          27.389  
> 2019  8  1  8  3 20.0000000  0 26
C11  25801570.444                        2888.856          22.368  
C12  21367049.699   111263839.101        -396.558          30.487  
C13  38880544.959   202461215.304       -1176.802          27.837  
C20  26421853.332   137585526.677        -791.947          25.735  
C24  22753051.091   118481108.854       -1964.654          31.389  
C25  23340410.470   121539672.688        1338.835          28.538  
C26  25418597.271                       -3726.834          16.301  
E02                                                                                                                                  26769332.277                       -2380.985          19.467  
E27                                                                                                                                  24456142.365    95971156.084        1149.569          30.018  
E36                                                                                                                                  25666428.801   100720577.649       -2004.601          25.909  
G02  25424989.446   133609236.106       -3410.733          25.755  
G05  23569579.020   123858930.373         387.512          32.625  
G09  25255415.440                         563.506          14.530    25255408.844    99107669.7891        423.436          20.444  
G16  23344550.304                        3094.787          26.814  
G21  22020548.991                        2161.088          24.573  
G23  25212781.055   132494072.373        -940.287          26.675  
G25  22567008.885   118590441.367       -3401.778          33.077    22567012.782                       -2539.606          25.025  
G26  21368841.259   112294021.684        1921.879          33.997    21368840.659    83855919.385        1435.156          30.013  
G29  20676258.624   108654442.625       -1804.933          35.715  
G31  21895660.849   115062474.551       -2384.007          37.404  
R06  23573694.271                       -1715.482          19.519  
R07  23384293.191                        1495.348          24.521  
R15  22125691.602                        3576.702          21.340  
R17  22991849.874   123033985.676        3729.109          31.405  
R23  19597927.637   104835658.545       -2141.069          33.846  
R24  19703310.982   105362469.457        1557.033          29.229  
> 2019  8  1  8  3 21.0000000  0 25
C11  25801015.828                        2886.363          22.586  
C12  21367127.346   111264235.883        -396.782          30.821  
C13  38880773.101                       -1177.264          26.426  
C20  26422004.427   137586318.929        -792.252          27.097  
C24  22753426.431   118483074.006       -1965.152          33.729  
C25  23340155.047   121538334.213        1338.475          28.012  
C26  25419314.974                       -3726.562          14.588  
E27                                                                                                                                  24455848.868    95970006.658        1149.426          29.410  
E36                                                                                                                                  25666937.849   100722582.436       -2004.787          26.964  
G02  25425640.895                       -3410.874          26.080  
G05  23569509.768   123858543.303         387.070          32.745  
G09                                                                  25255300.020                         423.082          21.445  
G16  23343959.713   122673303.7251       3094.522          26.769  
G21  22020138.275   115716650.9621       2156.962          27.168  
G23  25212958.532   132495012.895        -940.522          26.062  
G25  22567656.736   118593843.173       -3401.805          31.091    22567660.034                       -2540.594          23.203  
G26  21368477.311   112292100.033        1921.651          32.834    21368474.013    83854484.350        1435.035          29.718  
G29  20676602.186   108656247.789       -1805.164          35.213  
G31  21896115.635   115064858.924       -2384.373          38.494  
R06  23573955.690                       -1713.057          19.275  
R07  23384020.380                        1496.472          24.441  
R15  22125025.763   118229479.1161       3576.361          23.859  
R17  22991143.862   123030256.605        3729.071          31.338  
R23  19598323.663   104837800.034       -2141.489          34.707  
R24  19703029.477   105360912.885        1556.572          30.707  
> 2019  8  1  8  3 22.0000000  0 25
C11  25800461.212                        2880.593          22.356  
C12  21367199.596   111264633.458        -397.575          30.374  
C13  38880997.346   202463569.3561      -1177.258          26.863  
C20  26422157.621                        -793.172          25.186  
C24  22753807.167   118485040.145       -1966.138          31.744  
C25  23339899.924   121536996.684        1337.529          28.197  
C26  25420021.885                       -3721.326          17.779  
E27                                                                                                                                  24455557.170    95968857.706        1148.953          29.644  
E36                                                                                                                                  25667451.693   100724587.612       -2005.176          25.792  
G02  25426285.749   133616058.1331      -3411.266          25.494  
G05  23569432.721   123858157.406         385.897          32.694  
G09                                                                  25255190.595                         421.973          22.081  
G16  23343368.822   122670209.672        3094.053          26.633  
G21  22019729.958                        2159.568          22.958  
G23  25213141.106   132495954.428        -941.533          27.769  
G25  22568305.487   118597245.742       -3402.570          34.831    22568307.586                       -2541.124          24.902  
G26  21368111.864   112290179.141        1920.892          33.840    21368108.866    83853049.923        1434.427          30.347  
G29  20676946.048   108658053.712       -1805.924          33.820  
G31  21896569.820   115067244.197       -2385.273          38.053  
R06  23574281.864                       -1711.240          17.370  
R07  23383731.080                        1497.949          23.385  
R15  22124367.719                        3577.634          23.737  
R17  22990450.442   123026528.175        3728.431          31.579  
R23  19598720.888   104839942.602       -2142.568          34.653  
R24  19702741.676   105359357.354        1555.530          29.551  
> 2019  8  1  8  3 23.0000000  0 26
C11  25799912.292                        2882.437          21.735  
C12  21367278.441   111265031.809        -398.351          30.007  
C13  38881220.991   202464746.913       -1177.557          27.643  
C20  26422304.519   137587905.9911       -793.935          26.054  
C24  22754184.306   118487007.002       -1966.858          30.517  
C25  23339643.001   121535659.939        1336.745          28.389  
C26  25420746.184                       -3722.146          19.125  
E02                                                                                                                                  26771152.017                       -2378.148          18.602  
E27                                                                                                                                  24455263.373    95967709.226        1148.480          29.443  
E36                                                                                                                                  25667961.340   100726593.206       -2005.594          26.384  
G02  25426940.795   133619469.876       -3411.743          26.948  
G05  23569356.574   123857772.381         385.025          32.327  
G09                                                                  25255084.469                         420.737          22.097  
G16  23342778.830                        3093.229          26.327  
G21  22019304.253                        2159.947          22.799  
G23  25213317.084   132496896.815        -942.387          27.603  
G25  22568951.240   118600648.886       -3403.144          34.407    22568956.636                       -2541.481          22.782  
G26  21367747.017   112288259.020        1920.122          34.507    21367743.419    83851616.070        1433.853          29.345  
G29  20677287.512   108659860.548       -1806.835          34.273  
G31  21897021.008   115069630.383       -2386.186          37.905  
R06  23574657.804                       -1717.063          19.072  
R07  23383474.158                        1496.771          24.743  
R15  22123705.477                        3573.218          21.901  
R17  22989755.523   123022800.358        3727.817          31.440  
R23  19599127.706   104842086.072       -2143.470          34.471  
R24  19702436.187   105357802.941        1554.413          29.117  
> 2019  8  1  8  3 24.0000000  0 26
C11  25799354.678                        2886.144          22.950  
C12  21367356.987   111265431.115        -399.306          30.194  
C13  38881451.531   202465925.094       -1178.180          27.959  
C20  26422458.013   137588701.085        -795.094          25.983  
C24  22754560.546   118488974.752       -1967.750          30.653  
C25  23339386.679   121534324.160        1335.779          28.084  
C26  25421459.690                       -3730.579          18.809  
E02                                                                                                                                  26771762.395                       -2387.054          17.814  
E27                                                                                                                                  24454971.076    95966561.395        1147.831          29.324  
E36                                                                                                                                  25668472.186   100728599.256       -2006.051          27.894  
G02  25427584.150   133622882.249       -3412.373          25.893  
G05  23569285.523   123857388.593         383.789          32.220  
G09                                                                  25254981.040                         417.324          19.122  
G16  23342188.539                        3092.380          27.662  
G21  22018902.531   115710184.5131       2154.676          24.543  
G23  25213502.955   132497840.299        -943.484          26.574  
G25  22569595.794   118604052.787       -3403.900          32.434    22569604.488    88567974.4631      -2541.989          20.019  
G26  21367379.171   112286339.758        1919.261          35.052    21367378.572    83850182.887        1433.184          28.468  
G29  20677630.175   108661668.152       -1807.605          36.217  
G31  21897478.191   115072017.571       -2387.189          38.050  
R06  23574970.188                       -1728.610          19.555  
R07  23383206.443                        1490.000          24.367  
R15  22123050.731                        3569.612          21.825  
R17  22989065.401   123019073.281        3727.077          32.125  
R23  19599532.726   104844230.608       -2144.537          34.613  
R24  19702154.083   105356249.637        1553.304          29.171  
> 2019  8  1  8  3 25.0000000  0 26
C11  25798796.765                        2885.076          22.336  
C12  21367431.635   111265831.146        -400.031          30.633  
C13  38881680.872   202467103.800       -1178.706          27.479  
C20  26422608.209   137589497.144        -796.059          25.557  
C24  22754939.183   118490943.449       -1968.697          29.815  
C25  23339127.958   121532989.287        1334.873          27.419  
C26  25422174.695                       -3736.143          18.435  
E02                                                                                                                                  26772372.472                       -2387.095          17.178  
E27                                                                                                                                  24454680.877    95965413.996        1147.400          29.224  
E36                                                                                                                                  25668985.131   100730605.771       -2006.515          28.534  
G02  25428237.697   133626295.128       -3412.880          25.938  
G05  23569212.973   123857005.744         382.849          31.745  
G09                                                                  25254873.415                         420.129          18.658  
G16  23341604.543   122660931.1361       3092.261          27.129  
G21  22018496.912   115708030.650        2153.863          25.261  
G23  25213678.334   132498784.665        -944.366          27.060  
G25  22570246.344   118607457.413       -3404.626          31.999    22570253.239                       -2542.362          20.539  
G26  21367016.422   112284421.283        1918.475          34.243    21367013.125    83848750.174        1432.712          28.456  
G29  20677977.934   108663476.593       -1808.441          36.941  
G31  21897932.377   115074405.569       -2387.997          38.224  
R06  23575302.957                       -1729.123          18.019  
R07  23382931.234                        1490.016          24.507  
R15  22122363.307                        3574.513          20.729  
R17  22988370.182   123015346.824        3726.457          31.362  
R23  19599926.653   104846376.179       -2145.571          33.980  
R24  19701858.787   105354697.379        1552.258          29.302  
> 2019  8  1  8  3 26.0000000  0 26
C11  25798239.750                        2886.852          20.955  
C12  21367508.981   111266231.110        -399.965          30.181  
C13  38881903.918   202468282.015       -1178.215          27.640  
C19  26036238.687                        1499.062           9.374  
C20  26422762.002   137590293.135        -795.991          26.459  
C24  22755319.620   118492912.118       -1968.669          29.316  
C25  23338871.036                        1334.745          26.152  
C26  25422887.301                       -3729.975          19.684  
E27                                                                                                                                  24454387.680    95964266.547        1147.449          30.395  
E36                                                                                                                                  25669495.378   100732611.981       -2006.210          28.369  
G02  25428884.949                       -3412.325          26.108  
G05  23569140.424   123856623.119         382.625          30.897  
G09                                                                  25254766.089                         419.645          20.363  
G16  23341015.451   122657838.520        3092.616          25.983  
G21  22018094.590                        2153.146          22.846  
G23  25213855.211   132499728.897        -944.233          27.424  
G25  22570898.392   118610861.761       -3404.348          32.792    22570900.191                       -2541.125          20.086  
G26  21366653.074   112282502.698        1918.585          34.705    21366649.177    83847317.495        1432.680          29.217  
G29  20678320.597   108665284.809       -1808.216          36.453  
G31  21898386.562   115076793.636       -2388.068          38.245  
R06  23575646.520                       -1722.551          20.457  
R07  23382638.037   125169050.6951       1491.962          24.953  
R15  22121698.966                        3576.056          21.622  
R17  22987665.670   123011620.017        3726.807          30.943  
R23  19600319.981   104848521.765       -2145.586          34.641  
R24  19701580.879   105353145.273        1552.106          29.343  
> 2019  8  1  8  3 27.0000000  0 25
C11  25797687.832                        2886.176          20.804  
C12  21367586.328   111266631.247        -400.136          29.504  
C13  38882132.360                       -1180.889          25.547  
C20  26422916.396   137591089.756        -796.621          25.251  
C24  22755698.558   118494881.054       -1968.937          28.311  
C25  23338616.812   121530319.4181       1335.440          29.251  
C26  25423601.407                       -3722.658          19.513  
E02                                                                                                                                  26773584.533                       -2385.197          20.055  
E27                                                                                                                                  24454094.183    95963119.083        1147.463          30.377  
E36                                                                                                                                  25670007.124   100734618.364       -2006.383          27.999  
G02  25429541.495   133633119.5111      -3412.015          24.486  
G05  23569066.675   123856241.017         382.102          31.702  
G09  25254655.466                         562.596          19.258  
G16  23340424.860   122654745.778        3092.742          28.226  
G21  22017679.977                        2155.318          22.041  
G23  25214037.185   132500673.615        -944.718          30.638  
G25  22571547.743   118614265.887       -3404.125          31.945    22571547.143    88575599.9861      -2541.123          24.575  
G26  21366279.532   112280584.207        1918.491          34.243    21366284.329    83845884.892        1432.603          30.537  
G29  20678663.859   108667093.378       -1808.569          34.282  
G31  21898839.549   115079181.944       -2388.307          36.135  
R07  23382344.240                        1496.526          23.127  
R15  22120996.853                        3573.874          23.931  
R17  22986959.959                        3725.922          27.818  
R23  19600727.699   104850667.835       -2146.070          32.235  
R24  19701284.984   105351593.630        1551.643          27.847  
> 2019  8  1  8  3 28.0000000  0 27
C11  25797140.411   134332471.5861       2883.568          28.668  
C12  21367665.773   111267032.316        -401.070          34.017  
C13  38882355.106                       -1178.080          30.541  
C19  26035644.199                        1499.117          18.549  
C20  26423068.690   137591887.272        -797.516          33.923  
C24  22756073.598   118496850.715       -1969.661          30.040  
C25  23338364.087   121528985.623        1333.795          37.572  
C26  25424326.005                       -3722.464          23.212  
E02                                                                                                                                  26774197.009   105067665.0481      -2385.447          27.042  
E27                                                                                                                                  24453802.485    95961972.262        1146.821          33.322  
E36                                                                                                                                  25670517.071   100736625.156       -2006.793          31.050  
G02  25430187.248   133636532.763       -3413.253          29.502  
G05  23568991.427   123855860.138         380.879          37.633  
G09  25254552.937                         560.801          28.377    25254550.538    99104314.2831        418.852          32.651  
G16  23339833.669   122651653.979        3091.799          34.557  
G21  22017270.161   115701570.5771       2152.678          31.124  
G23  25214220.059   132501619.546        -945.931          38.051  
G25  22572194.995   118617671.597       -3405.710          32.595    22572199.192    88578143.235       -2543.248          27.732  
G26  21365919.482   112278666.521        1917.686          38.094    21365918.582    83844452.948        1431.944          34.863  
G29  20679011.918   108668902.765       -1809.386          42.480  
G31  21899298.831   115081571.264       -2389.320          41.169  
R06  23576272.486   125807360.5801      -1724.360          32.310  
R07  23382080.722                        1485.636          33.166  
R15  22120364.290                        3570.288          34.514  
R17  22986269.837   123004166.5861       3726.049          33.360  
R23  19601133.917   104852814.925       -2147.090          39.942  
R24  19700994.186                        1550.976          26.168  
> 2019  8  1  8  3 29.0000000  0 27
C05  40102269.377                        -212.081          23.681  
C11  25796589.693   134329587.480        2884.105          34.106  
C12  21367734.425   111267432.874        -400.558          32.708  
C13  38882577.552   202471817.2601      -1177.801          33.069  
C20  26423220.985   137592684.366        -797.094          36.161  
C24  22756448.938                       -1968.976          33.844  
C25  23338108.364   121527651.691        1333.932          40.857  
C26  25425059.897                       -3726.050          25.493  
E02                                                                                                                                  26774800.491                       -2384.035          25.116  
E27                                                                                                                                  24453511.087    95960824.903        1147.359          35.341  
E36                                                                                                                                  25671029.116   100738631.526       -2006.370          28.568  
G02  25430835.099   133639945.068       -3412.305          34.204  
G05  23568919.177   123855478.847         381.291          39.704  
G09  25254442.313   132712952.0201        561.125          31.654    25254442.613    99103895.237         419.045          33.517  
G16  23339248.774   122648561.336        3092.643          33.535  
G21  22016858.246                        2153.164          28.492  
G23  25214399.634   132502565.064        -945.518          36.062  
G25  22572842.846                       -3407.641          31.017    22572844.945                       -2542.586          24.115  
G26  21365557.332   112276748.685        1917.836          42.245    21365555.833    83843020.625        1432.323          36.528  
G29  20679348.585   108670711.658       -1808.893          39.262  
G31  21899752.417   115083960.440       -2389.176          37.597  
R06  23576609.453   125809084.767       -1724.187          33.829  
R07  23381800.117   125164576.7271       1490.113          38.023  
R15  22119685.261   118200893.7971       3572.924          38.884  
R17  22985577.616   123000440.232        3726.354          39.944  
R23  19601538.937   104854961.762       -2146.838          37.009  
R24  19700713.880   105348493.0431       1550.848          28.187  
> 2019  8  1  8  3 30.0000000  0 28
C05  40102302.654                        -212.644          26.084  
C11  25796032.079   134326701.058        2886.422          33.443  
C12  21367817.768                        -398.505          30.994  
C13  38882810.191   202472992.890       -1175.630          34.555  
C19  26035093.180   135571597.8351       1503.569          27.321  
C20  26423373.879   137593479.603        -795.237          39.497  
C24  22756826.077                       -1966.955          30.609  
C25  23337850.242   121526315.821        1335.869          40.862  
C26  25425773.703                       -3722.665          30.398  
E02                                                                                                                                  26775410.269   105072433.6541      -2383.037          27.039  
E27                                                                                                                                  24453218.189    95959676.283        1148.620          35.532  
E36                                                                                                                                  25671542.661   100740636.083       -2004.557          30.805  
G02  25431484.450   133643355.112       -3410.044          37.994  
G05  23568849.025   123855095.837         383.009          41.095  
G09  25254331.390   132712389.056         562.964          36.048    25254335.287    99103474.833         420.404          35.651  
G16  23338659.083   122645466.627        3094.709          36.716  
G21  22016450.229   115697263.4121       2155.704          29.513  
G23  25214579.210   132503508.740        -943.677          39.610  
G25  22573482.004   118624478.3021      -3402.430          33.627  
G26  21365191.286   112274828.810        1919.875          43.806    21365188.888    83841587.029        1433.596          35.957  
G29  20679700.841   108672518.757       -1807.099          38.647  
G31  21900208.701   115086347.705       -2387.265          41.556  
R06  23576916.440   125810807.275       -1722.508          37.497  
R07  23381518.911   125163084.996        1491.731          40.506  
R15  22119010.128   118197318.780        3575.017          40.267  
R17  22984882.997   122996711.533        3728.699          42.209  
R23  19601932.265   104857106.774       -2145.012          34.920  
R24  19700403.894                        1550.689          25.101  
> 2019  8  1  8  3 31.0000000  0 28
C05  40102348.522                        -209.439          25.704  
C11  25795477.163   134323812.913        2888.145          33.781  
C12  21367890.617   111268229.3591       -397.234          34.302  
C13  38883034.435   202474166.672       -1173.782          32.997  
C19  26034804.780   135570092.988        1504.846          27.830  
C20  26423528.572   137594273.812        -794.209          37.524  
C24  22757209.212                       -1963.916          27.655  
C25  23337599.016   121524978.460        1337.362          40.633  
C26  25426481.513   132402225.5481      -3722.042          29.904  
E02                                                                                                                                  26776017.948   105074815.745       -2382.091          28.186  
E27                                                                                                                                  24452924.992    95958526.507        1149.776          35.604  
E36                                                                                                                                  25672053.807   100742639.670       -2003.587          32.469  
G02  25432130.203   133646763.148       -3408.036          36.568  
G05  23568774.377   123854711.827         384.010          38.537  
G09  25254224.964   132711824.376         564.680          34.644    25254227.662    99103053.636         421.197          36.187  
G16  23338069.091   122642370.169        3096.458          35.015  
G21  22016040.412   115695107.289        2156.124          26.954  
G23  25214754.289   132504451.135        -942.394          37.521  
G25  22574134.052   118627879.583       -3401.280          35.194  
G26  21364822.241   112272907.448        1921.362          39.186    21364824.340    83840152.352        1434.677          35.898  
G29  20680037.208   108674324.076       -1805.320          42.992  
G31  21900658.390   115088733.480       -2385.775          35.480  
R06  23577235.420   125812528.791       -1721.517          34.848  
R07  23381245.501   125161592.226        1492.771          38.170  
R15  22118341.891   118193742.135        3576.644          39.190  
R17  22984188.377   122992981.246        3730.287          43.000  
R23  19602324.093   104859250.743       -2143.969          37.316  
R24  19700113.395                        1552.593          28.687  
> 2019  8  1  8  3 32.0000000  0 27
C05  40102384.197                        -208.009          26.306  
C11  25794920.148   134320923.461        2889.452          32.586  
C12  21367970.362   111268625.926        -396.566          34.442  
C13  38883258.980   202475339.565       -1172.893          33.103  
C19  26034519.377   135568587.239        1505.749          27.082  
C20  26423678.168   137595067.144        -793.331          37.649  
C24  22757593.546                       -1960.307          23.879  
C25  23337340.296   121523640.564        1337.895          40.399  
C26  25427186.325                       -3719.298          29.061  
E02                                                                                                                                  26776623.529   105077196.798       -2381.053          28.716  
E27                                                                                                                                  24452631.795    95957375.695        1150.812          37.006  
E36                                                                                                                                  25672562.255   100744642.402       -2002.732          31.768  
G02  25432784.050   133650170.459       -3407.311          34.465  
G05  23568703.326   123854327.136         384.691          36.550  
G09  25254118.538   132711259.557         564.819          34.313    25254120.336    99102631.712         421.924          36.115  
G16  23337476.401   122639272.652        3097.518          33.745  
G23  25214939.860   132505392.667        -941.532          37.548  
G25  22574782.803   118631279.680       -3400.097          36.095    22574788.499    88588348.8461      -2538.945          26.993  
G26  21364453.197   112270985.213        1922.235          36.973    21364457.094    83838716.813        1435.539          36.558  
G29  20680387.666   108676129.024       -1804.948          41.862  
G31  21901119.470   115091118.822       -2385.342          36.331  
R06  23577559.495   125814249.764       -1720.972          34.716  
R07  23380960.698   125160098.870        1493.356          36.821  
R15  22117676.951   118190164.565        3577.570          39.109  
R17  22983485.964   122989249.755        3731.490          41.303  
R23  19602720.719   104861394.110       -2143.367          35.223  
R24  19699818.699   105343832.4441       1554.254          27.266  
> 2019  8  1  8  3 33.0000000  0 26
C05  40102422.870                        -206.634          28.561  
C11  25794367.331   134318034.643        2888.818          31.818  
C12  21368046.809   111269022.938        -397.012          33.610  
C13  38883484.124   202476512.613       -1173.047          35.260  
C19  26034228.279   135567082.361        1504.878          28.227  
C20  26423830.463   137595861.359        -794.216          41.310  
C25  23337084.872   121522303.546        1337.018          40.930  
E02                                                                                                                                  26777229.110   105079578.207       -2381.409          28.666  
E27                                                                                                                                  24452338.598    95956225.662        1150.034          37.340  
E36                                                                                                                                  25673074.600   100746645.497       -2003.095          29.442  
G02  25433431.901   133653578.199       -3407.740          38.265  
G05  23568624.181   123853943.427         383.709          39.695  
G09  25254013.310   132710695.639         563.917          37.536    25254013.011    99102210.729         420.983          37.248  
G16  23336891.806   122636175.692        3096.959          35.732  
G21  22015218.681   115690793.7221       2156.477          28.460  
G23  25215117.937   132506335.141        -942.474          41.080  
G25  22575425.258   118634680.249       -3400.570          35.788    22575440.248                       -2541.569          25.311  
G26  21364093.746   112269063.909        1921.304          43.088    21364091.647    83837282.030        1434.783          36.982  
G29  20680729.729   108677934.684       -1805.659          39.732  
G31  21901570.658   115093504.961       -2386.138          41.328  
R06  23577885.070   125815971.866       -1722.102          38.494  
R07  23380680.092   125158606.563        1492.307          40.910  
R15  22117007.514   118186587.751        3576.814          41.458  
R17  22982781.751   122985519.008        3730.747          41.662  
R23  19603131.435   104863538.194       -2144.084          37.488  
R24  19699519.207                        1554.586          24.503  
> 2019  8  1  8  3 34.0000000  0 27
C05  40102468.739                        -206.707          29.160  
C11  25793816.013   134315148.441        2886.202          31.193  
C12  21368123.856   111269423.114        -400.176          35.180  
C13  38883708.669   202477688.264       -1175.652          35.456  
C19  26033942.577   135565580.146        1502.215          28.135  
C20  26423985.456   137596658.506        -797.147          41.152  
C24  22758333.733                       -1972.620          29.334  
C25  23336824.652   121520969.378        1334.169          40.650  
E02                                                                                                                                  26777836.190   105081961.499       -2383.293          27.987  
E27                                                                                                                                  24452046.001    95955077.722        1147.940          38.161  
E36                                                                                                                                  25673584.247   100748650.440       -2004.943          30.026  
G02  25434078.854   133656988.440       -3410.242          38.391  
G05  23568555.229   123853562.679         380.748          40.171  
G09  25253906.584   132710134.714         560.925          36.090    25253906.284    99101791.810         418.919          36.999  
G16  23336303.913   122633081.325        3094.367          35.165  
G21  22014805.867   115688640.091        2153.631          31.094  
G23  25215297.813   132507280.625        -945.483          40.272  
G25  22576072.210   118638083.554       -3403.305          34.998    22576087.800    88593430.0641      -2541.477          23.997  
G26  21363725.601   112267145.309        1918.600          43.056    21363727.099    83835849.436        1432.594          38.420  
G29  20681073.291   108679743.153       -1808.469          41.039  
G31  21902024.544   115095894.032       -2389.071          42.868  
R06  23578205.548   125817697.210       -1725.344          37.323  
R07  23380397.388   125157117.450        1489.113          41.063  
R15  22116342.275   118183013.814        3573.938          39.558  
R17  22982097.625   122981790.892        3728.116          41.557  
R23  19603532.857   104865685.324       -2147.130          38.802  
R24  19699236.203   105340730.3341       1549.692          25.937  
> 2019  8  1  8  3 35.0000000  0 27
C11  25793259.298   134312263.142        2885.300          29.985  
C12  21368199.703   111269824.688        -401.574          36.736  
C13  38883933.813   202478864.971       -1176.707          35.397  
C19  26033651.478                        1501.125          24.705  
C20  26424135.652   137597457.149        -798.643          38.195  
C24  22758719.866   118510628.5021      -1970.885          33.630  
C25  23336565.332   121519636.683        1332.695          37.174  
C26  25429337.636                       -3725.421          29.171  
E02                                                                                                                                  26778444.169   105084345.913       -2384.413          24.825  
E27                                                                                                                                  24451753.403    95953930.481        1147.241          36.789  
E36                                                                                                                                  25674095.094   100750656.440       -2006.000          30.555  
G02  25434732.101   133660399.810       -3411.370          35.770  
G05  23568480.580   123853183.620         379.059          39.422  
G09  25253798.959   132709575.285         559.429          33.527    25253800.158    99101374.039         417.771          34.067  
G16  23335714.821   122629988.137        3093.189          32.598  
G21  22014400.548   115686487.749        2152.342          34.132  
G23  25215478.587   132508227.613        -946.988          37.551  
G25                                                                  22576737.750                       -2545.165          19.900  
G26  21363361.952   112265228.141        1917.168          40.638    21363362.552    83834417.622        1431.814          38.526  
G29  20681416.853   108681552.927       -1809.774          44.648  
G31  21902477.530   115098284.601       -2390.569          44.944  
R06  23578537.418   125819424.217       -1727.007          34.903  
R07  23380123.078   125155630.014        1487.436          37.980  
R15  22115662.346   118179441.300        3572.514          35.919  
R17  22981394.911   122978064.044        3726.848          39.435  
R23  19603927.983   104867834.066       -2148.742          42.399  
R24  19698951.999   105339182.012        1548.322          30.318  
> 2019  8  1  8  3 36.0000000  0 24
C11  25792701.684                        2884.791          27.227  
C12  21368277.349   111270227.022        -402.334          33.924  
C19  26033364.577                        1502.514          20.622  
C20  26424293.642   137598256.824        -799.675          32.847  
C24  22759096.405   118512600.303       -1971.801          31.725  
C25  23336309.609   121518304.913        1331.770          35.528  
E02                                                                                                                                  26779053.047                       -2378.601          19.905  
E27                                                                                                                                  24451461.705    95952783.949        1146.532          32.457  
E36                                                                                                                                  25674606.240   100752662.856       -2006.416          29.695  
G02  25435376.056   133663811.789       -3411.979          31.495  
G05  23568410.129   123852805.629         377.991          34.350  
G09  25253689.235   132709016.991         558.294          29.554    25253693.732    99100957.246         416.793          30.741  
G16  23335125.129   122626895.538        3092.598          31.131  
G21  22013989.832   115684336.440        2151.308          31.836  
G23  25215659.362   132509175.543        -947.931          34.054  
G25  22577370.911   118644893.3901      -3405.201          30.796    22577373.909                       -2551.058          18.705  
G26  21362999.803   112263311.724        1916.417          39.786    21362997.704    83832986.553        1431.069          33.758  
G29  20681759.516   108683363.534       -1810.607          42.167  
G31  21902932.016   115100676.057       -2391.456          40.853  
R06  23578858.496                       -1726.076          30.835  
R07  23379844.870   125154143.906        1486.108          34.197  
R17  22980702.691   122974337.780        3726.263          33.848  
R23  19604334.502   104869983.725       -2149.659          37.538  
R24  19698669.295   105337634.852        1547.160          30.056  
> 2019  8  1  8  3 37.0000000  0 27
C11  25792146.469                        2883.043          25.762  
C12  21368355.895   111270630.504        -403.482          32.698  
C13  38884392.495   202481219.9641      -1177.985          29.453  
C19  26033078.275                        1499.032          18.384  
C20  26424448.035   137599057.814        -800.991          30.890  
C24  22759477.142   118514573.302       -1972.998          34.862  
C25  23336052.087   121516974.183        1330.729          33.351  
C26  25430771.243                       -3738.226          19.444  
E02                                                                                                                                  26779663.725                       -2390.863          18.980  
E27                                                                                                                                  24451169.707    95951638.148        1145.800          32.192  
E36                                                                                                                                  25675116.787   100754670.021       -2007.165          29.295  
G02  25436028.104   133667224.575       -3412.786          28.493  
G05  23568343.575   123852429.157         376.472          33.526  
G09  25253584.307   132708460.344         556.647          28.299    25253589.104    99100541.286         415.960          28.436  
G16  23334535.737   122623803.806        3091.733          29.397  
G21  22013580.315   115682185.515        2150.926          30.622  
G23  25215839.538   132510125.423        -949.879          31.726  
G25  22578019.962   118648299.372       -3405.982          33.733  
G26  21362637.354   112261396.455        1915.269          37.415    21362633.157    83831556.343        1430.211          33.230  
G29  20682110.273   108685175.293       -1811.759          38.811  
G31  21903388.300   115103068.745       -2392.688          42.319  
R06  23579186.169   125822882.6381      -1730.057          28.620  
R07  23379575.956   125152659.301        1484.605          31.635  
R15  22114322.873                        3572.016          29.216  
R17  22979995.780   122970612.708        3725.072          33.158  
R23  19604737.423   104872134.843       -2151.118          36.770  
R24  19698392.886   105336089.072        1545.780          32.357  
> 2019  8  1  8  3 38.0000000  0 27
C11  25791595.150                        2883.427          26.610  
C12  21368434.740   111271035.183        -404.679          33.868  
C13  38884621.836   202482398.806       -1178.842          27.902  
C19  26032786.877                        1499.494          17.094  
C20  26424599.430   137599860.086        -802.272          29.893  
C24  22759855.180   118516547.500       -1974.198          39.474  
C25  23335797.863   121515644.778        1329.405          31.199  
C26  25431482.651                       -3739.020          18.589  
E02                                                                                                                                  26780271.404   105091505.9491      -2386.021          20.328  
E27                                                                                                                                  24450878.009    95950493.204        1144.944          32.266  
E36                                                                                                                                  25675628.232   100756677.850       -2007.829          29.713  
G02  25436674.756   133670638.504       -3413.929          26.963  
G05  23568268.627   123852054.057         375.100          33.948  
G09  25253482.978   132707904.690         555.654          26.467    25253481.179    99100126.514         414.772          28.103  
G16  23333941.548   122620713.077        3090.728          28.011  
G21  22013171.998   115680036.386        2149.129          34.149  
G23  25216017.914   132511075.878        -950.455          31.672  
G25  22578672.610   118651706.718       -3407.346          36.618    22578674.109    88603604.7321      -2544.495          27.145  
G26  21362273.706   112259482.343        1914.112          36.152    21362268.609    83830127.019        1429.324          33.203  
G29  20682452.336   108686988.179       -1812.886          39.241  
G31  21903841.886   115105462.762       -2394.017          42.096  
R06  23579509.345   125824614.025       -1731.387          28.176  
R07  23379307.043                        1481.718          30.335  
R15  22113653.136                        3567.697          26.716  
R17  22979308.356   122966888.496        3724.212          33.635  
R23  19605149.637   104874287.297       -2152.454          36.740  
R24  19698101.188   105334544.698        1544.374          33.635  
> 2019  8  1  8  3 39.0000000  0 25
C11  25791042.633                        2879.932          25.398  
C12  21368510.288   111271439.695        -404.512          33.455  
C13  38884849.379   202483577.135       -1178.329          27.414  
C19  26032499.975                        1501.099          15.672  
C20  26424752.025   137600662.337        -802.251          30.000  
C24  22760234.717   118518521.660       -1974.160          38.774  
C25  23335541.541   121514315.302        1329.476          30.499  
E27                                                                                                                                  24450586.311    95949347.976        1145.228          32.190  
E36                                                                                                                                  25676140.278   100758685.409       -2007.559          29.867  
G02  25437320.509   133674051.826       -3413.322          26.380  
G05  23568199.075   123851678.968         375.089          34.405  
G09  25253377.151   132707348.992         555.699          25.824    25253376.251    99099711.695         414.819          27.891  
G16  23333351.857   122617621.833        3091.244          28.303  
G21  22012766.979   115677887.175        2149.211          32.805  
G23  25216204.385   132512026.437        -950.559          31.526  
G25  22579319.562   118655113.827       -3407.110          35.947    22579321.661    88606149.021       -2544.289          27.464  
G26  21361909.758   112257567.999        1914.344          36.358    21361904.062    83828697.460        1429.559          33.431  
G29  20682796.198   108688800.918       -1812.739          39.335  
G31  21904296.071   115107856.658       -2393.896          41.534  
R06  23579827.125   125826345.678       -1731.652          27.559  
R07  23379030.034   125149693.4751       1482.861          30.162  
R15  22112998.090                        3568.914          25.183  
R17  22978605.642   122963163.926        3724.571          33.745  
R23  19605544.164   104876439.736       -2152.439          36.993  
R24  19697802.895   105333000.367        1544.331          33.949  
> 2019  8  1  8  3 40.0000000  0 26
C11  25790493.113                        2883.881          26.530  
C12  21368587.635   111271843.222        -403.527          33.121  
C13  38885072.425                       -1175.313          26.776  
C19  26032213.673                        1501.572          13.820  
C20  26424906.718   137601463.612        -801.274          29.662  
C24  22760614.854   118520494.869       -1973.209          38.038  
C25  23335288.516   121512984.799        1330.503          31.282  
C26  25432907.564                       -3722.617          22.586  
E27                                                                                                                                  24450294.014    95948201.900        1146.076          32.548  
E36                                                                                                                                  25676652.024   100760691.951       -2006.541          29.050  
G02  25437977.355   133677463.943       -3412.118          25.694  
G05  23568128.924   123851303.158         375.810          35.344  
G09  25253270.125   132706792.872         556.119          24.059    25253271.624    99099296.143         415.552          28.436  
G16  23332769.959   122614529.286        3092.547          28.261  
G21  22012353.565   115675736.964        2150.211          33.588  
G23  25216380.063   132512975.883        -949.446          30.914  
G25  22579972.510   118658519.766       -3405.939          34.039    22579971.611    88608691.992       -2542.971          24.204  
G26  21361545.510   112255652.639        1915.360          35.233    21361539.814    83827267.187        1430.273          33.165  
G29  20683138.261   108690612.606       -1811.688          38.636  
G31  21904753.255   115110249.617       -2392.959          41.049  
R06  23580138.310                       -1728.794          26.649  
R07  23378754.825   125148209.919        1483.556          29.264  
R15  22112336.148   118161587.8241       3571.125          29.170  
R17  22977907.725   122959438.135        3725.791          33.560  
R23  19605948.584   104878591.331       -2151.595          37.825  
R24  19697522.889   105331455.226        1545.142          34.524  
> 2019  8  1  8  3 41.0000000  0 26
C11  25789937.298                        2888.022          27.753  
C12  21368665.581   111272246.288        -403.066          33.520  
C13  38885293.671   202485930.3401      -1176.244          26.092  
C19  26031924.674                        1499.105          17.438  
C20  26425060.511   137602264.746        -801.134          30.306  
C24  22760992.593   118522467.815       -1972.945          38.787  
C25  23335031.594   121511654.058        1330.741          31.418  
C26  25433615.974                       -3718.129          21.998  
E27                                                                                                                                  24450001.716    95947055.497        1146.403          32.670  
E36                                                                                                                                  25677163.470   100762698.268       -2006.317          28.831  
G02  25438625.506   133680875.194       -3411.251          24.865  
G05  23568054.575   123850927.186         375.972          34.663  
G09  25253155.304   132706236.280         556.592          26.730    25253165.198    99098880.575         415.569          29.492  
G16  23332176.970   122611436.437        3092.849          27.067  
G21  22011944.348   115673586.386        2150.578          35.130  
G23  25216563.237   132513925.298        -949.415          29.735  
G25  22580615.265   118661925.219       -3405.453          32.156    22580621.261                       -2519.188          19.552  
G26  21361178.864   112253736.937        1915.701          36.520    21361175.566    83825836.531        1430.657          33.229  
G29  20683484.522   108692423.885       -1811.279          36.560  
G31  21905210.139   115112642.358       -2392.741          40.587  
R06  23580482.771   125829807.6961      -1730.903          28.849  
R07  23378464.926   125146726.189        1483.730          28.861  
R15  22111663.414   118158016.372        3571.451          28.740  
R17  22977220.301   122955711.734        3726.400          34.045  
R23  19606362.298   104880742.643       -2151.312          37.523  
R24  19697238.685   105329910.003        1545.222          34.644  
> 2019  8  1  8  3 42.0000000  0 26
C11  25789383.581   134292083.6611       2885.349          28.531  
C12  21368741.728   111272649.783        -403.495          33.768  
C13  38885524.512   202487106.461       -1176.120          25.509  
C19  26031644.967                        1500.600          17.393  
C20  26425215.504   137603066.409        -801.663          29.860  
C24  22761373.029   118524441.109       -1973.294          39.162  
C25  23334775.271   121510323.730        1330.327          30.773  
C26  25434341.172                       -3724.783          21.005  
E27                                                                                                                                  24449709.718    95945909.235        1146.262          33.605  
E36                                                                                                                                  25677674.016   100764704.511       -2006.243          28.752  
G02  25439276.655   133684286.595       -3411.402          23.733  
G05  23567988.021   123850551.837         375.349          35.540  
G09  25253052.476   132705681.412         554.869          24.763    25253058.771    99098465.369         415.206          29.564  
G16  23331586.079   122608343.481        3092.956          24.898  
G21  22011536.031   115671436.129        2150.257          35.330  
G23  25216739.814   132514875.163        -949.865          29.551  
G25  22581265.515   118665330.849       -3405.630          32.726  
G26  21360811.618   112251821.541        1915.396          36.378    21360811.018    83824406.178        1430.353          34.391  
G29  20683831.981   108694235.477       -1811.591          37.393  
G31  21905663.725   115115035.541       -2393.183          41.256  
R06  23580802.950   125831539.444       -1731.748          28.432  
R07  23378203.806                        1483.338          27.125  
R15  22110993.378   118154445.189        3571.183          28.155  
R17  22976517.288   122951985.559        3726.176          34.789  
R23  19606764.320   104882894.535       -2151.892          38.071  
R24  19696939.193   105328365.341        1544.662          34.903  
> 2019  8  1  8  3 43.0000000  0 26
C11  25788830.164   134289198.492        2885.170          28.379  
C12  21368820.573   111273053.759        -403.976          33.346  
C13  38885748.157                       -1179.468          24.327  
C19  26031348.772                        1497.204          16.674  
C20  26425371.996   137603868.581        -802.172          30.110  
C24  22761751.667   118526415.079       -1973.970          38.807  
C25  23334521.947   121508993.950        1329.780          32.067  
C26  25435048.382                       -3727.750          19.893  
E27                                                                                                                                  24449417.421    95944763.226        1146.009          33.192  
E36                                                                                                                                  25678185.762   100766710.960       -2006.450          29.068  
G02  25439925.706                       -3412.053          23.365  
G05  23567912.474   123850177.164         374.673          34.852  
G09  25252953.544                         550.286          22.995    25252953.544    99098050.649         414.719          30.228  
G16  23331005.981   122605250.848        3092.634          25.270  
G21  22011127.414   115669286.485        2149.644          34.806  
G23  25216924.786   132515826.161        -950.998          29.101  
G25  22581910.968   118668736.825       -3405.976          34.036  
G26  21360450.368   112249906.557        1914.985          37.115    21360447.370    83822976.181        1429.996          33.893  
G29  20684174.644   108696047.613       -1812.136          36.808  
G31  21906119.709   115117429.323       -2393.782          40.955  
R06  23581133.321   125833272.023       -1732.579          28.120  
R07  23377901.915   125143761.1251       1482.087          26.796  
R15  22110331.436   118150874.406        3570.784          27.309  
R17  22975822.369   122948259.697        3725.861          34.822  
R23  19607163.043   104885047.080       -2152.546          38.311  
R24  19696655.589   105326821.437        1543.904          34.103  
> 2019  8  1  8  3 44.0000000  0 26
C11  25788274.049   134286313.249        2885.242          27.849  
C12  21368896.721   111273457.973        -404.214          33.642  
C13  38885977.198                       -1178.065          24.548  
C19  26031053.477                        1496.685          16.408  
C20  26425524.890   137604671.171        -802.590          29.674  
C24  22762130.905   118528389.240       -1974.161          39.009  
C25  23334266.224   121507664.475        1329.475          30.355  
C26  25435762.788                       -3726.091          20.303  
E27                                                                                                                                  24449126.022    95943617.438        1145.788          33.775  
E36                                                                                                                                  25678697.208   100768717.477       -2006.517          29.592  
G02  25440568.161                       -3412.488          23.207  
G05  23567839.025   123849803.040         374.124          34.970  
G09                                                                  25252848.317    99097636.235         414.414          30.137  
G16  23330413.591                        3091.680          25.017  
G21  22010715.499   115667136.936        2149.550          34.993  
G23  25217104.962   132516776.953        -950.792          29.573  
G25  22582563.617   118672142.867       -3406.042          33.148  
G26  21360086.420   112247991.878        1914.679          36.485    21360081.923    83821546.367        1429.815          34.515  
G29  20684520.604   108697860.040       -1812.427          36.915  
G31  21906573.894   115119823.407       -2394.085          41.076  
R06  23581459.196   125835005.172       -1733.149          28.803  
R07  23377616.513                        1479.937          27.037  
R15  22109659.301   118147303.744        3570.661          27.605  
R17  22975132.247   122944533.887        3725.810          34.665  
R23  19607562.967   104887200.035       -2152.954          38.019  
R24  19696367.189   105325278.072        1543.365          34.474  
> 2019  8  1  8  3 45.0000000  0 25
C11  25787720.932   134283427.981        2885.269          27.749  
C12  21368974.367   111273862.410        -404.437          33.824  
C13  38886200.843                       -1176.277          24.417  
C19  26030767.175                        1491.007          16.343  
C20  26425677.784   137605474.136        -802.965          29.839  
C24  22762508.044   118530363.778       -1974.538          38.869  
C25  23334007.803   121506335.434        1329.041          28.173  
E27                                                                                                                                  24448834.024    95942471.649        1145.789          33.695  
E36                                                                                                                                  25679208.054   100770724.004       -2006.527          30.185  
G02  25441220.809                       -3412.780          22.586  
G05  23567769.772   123849429.357         373.683          35.662  
G09  25252737.993   132704020.0711        554.425          27.061    25252742.790    99097222.194         414.042          29.566  
G16  23329823.899   122599065.5291       3092.538          24.508  
G21  22010309.580   115664987.721        2149.214          35.226  
G23  25217284.237   132517728.096        -951.143          30.189  
G25  22583209.669   118675549.071       -3406.204          32.199  
G26  21359726.969   112246077.374        1914.503          36.063    21359718.275    83820116.650        1429.716          34.133  
G29  20684863.267   108699672.646       -1812.606          37.337  
G31  21907027.480   115122217.864       -2394.456          40.957  
R06  23581782.372   125836738.949       -1733.777          29.895  
R07  23377350.297                        1477.111          25.044  
R15  22108994.661   118143733.220        3570.524          28.097  
R17  22974436.728   122940808.200        3725.687          33.646  
R23  19607961.391   104889353.352       -2153.317          37.030  
R24  19696084.784   105323735.199        1542.873          35.280  
> 2019  8  1  8  3 46.0000000  0 24
C11  25787169.314   134280542.689        2885.292          28.757  
C12  21369052.613   111274267.128        -404.718          33.123  
C13  38886430.185   202491811.3141      -1175.982          25.399  
C20  26425831.577   137606277.432        -803.296          30.191  
C24  22762889.080   118532338.622       -1974.844          39.309  
C25  23333754.478                        1328.686          27.088  
E27                                                                                                                                  24448541.727    95941325.982        1145.667          33.732  
E36                                                                                                                                  25679719.500   100772730.561       -2006.557          30.224  
G02  25441870.759                       -3408.630          22.097  
G05  23567701.120   123849056.159         373.198          35.951  
G09  25252631.567   132703465.985         554.086          27.348    25252637.263    99096808.428         413.766          29.768  
G16  23329228.211   122595972.872        3092.657          24.397  
G21  22009897.365   115662838.744        2148.978          34.852  
G23  25217466.511   132518679.694        -951.597          29.946  
G25  22583862.917   118678955.358       -3406.287          32.693  
G26  21359355.526   112244163.088        1914.286          36.627    21359353.727    83818687.172        1429.478          34.367  
G29  20685208.028   108701485.468       -1812.822          37.264  
G31  21907486.163   115124612.676       -2394.812          41.537  
R06  23582098.653   125838473.364       -1734.416          29.624  
R07  23377071.490   125139318.1921       1480.494          25.004  
R15  22108330.022   118140162.947        3570.274          27.029  
R17  22973730.417   122937082.530        3725.670          34.682  
R23  19608363.412   104891507.097       -2153.745          37.175  
R24  19695790.988   105322192.819        1542.380          35.057  
> 2019  8  1  8  3 47.0000000  0 24
C11  25786614.998   134277658.213        2884.476          28.903  
C12  21369130.559   111274673.056        -405.928          33.452  
C13  38886655.329   202492988.379       -1177.065          25.135  
C19  26030165.192                        1499.238          12.630  
C20  26425986.870   137607082.126        -804.694          30.489  
C24  22763268.617   118534314.808       -1976.186          39.704  
C25  23333501.753   121503678.9681       1327.540          29.016  
E27                                                                                                                                  24448250.628    95940181.192        1144.790          33.654  
E36                                                                                                                                  25680231.246   100774737.869       -2007.307          30.245  
G05  23567628.870   123848684.458         371.701          35.263  
G09  25252529.038   132702913.302         552.683          26.555    25252531.736    99096395.773         412.655          29.758  
G16  23328646.614   122592881.194        3091.678          23.379  
G21  22009488.748   115660691.015        2147.728          35.178  
G23  25217650.584   132519632.496        -952.802          29.795  
G25  22584503.274   118682362.786       -3407.428          33.316  
G26  21358992.477   112242250.015        1913.073          36.323    21358990.079    83817258.586        1428.586          33.935  
G29  20685554.289   108703299.507       -1814.039          37.287  
G31  21907943.646   115127008.783       -2396.107          41.411  
R06  23582428.125   125840209.400       -1736.036          29.140  
R07  23376795.681                        1477.646          25.753  
R15  22107656.088   118136593.773        3569.174          28.610  
R17  22973043.593   122933357.931        3724.599          34.526  
R23  19608764.835   104893662.294       -2155.197          37.555  
R24  19695489.996   105320651.916        1540.903          34.923  
> 2019  8  1  8  3 48.0000000  0 25
C11  25786062.181   134274775.704        2882.509          29.928  
C12  21369209.104   111275081.186        -408.131          33.434  
C13  38886880.473                       -1177.428          25.500  
C19  26029880.689                        1494.995          13.686  
C20  26426144.861   137607889.106        -806.981          30.478  
C24  22763648.754   118536293.183       -1978.375          39.665  
C25  23333246.330   121502353.629        1325.339          29.775  
C26  25438628.204                       -3727.459          21.654  
E27                                                                                                                                  24447958.031    95939037.911        1143.282          33.816  
E36                                                                                                                                  25680742.992   100776746.629       -2008.760          29.832  
G05  23567556.620   123848315.150         369.308          35.487  
G09  25252422.911   132702363.073         550.229          25.165    25252426.809    99095984.811         410.962          29.629  
G16  23328059.021   122589791.488        3089.707          24.364  
G21  22009079.232   115658545.468        2145.547          35.490  
G23  25217828.660   132520587.749        -955.254          29.773  
G25  22585158.320   118685772.215       -3409.430          31.792  
G26  21358631.827   112240339.119        1910.896          36.110    21358625.531    83815831.651        1426.935          34.165  
G29  20685902.048   108705115.801       -1816.294          37.791  
G31  21908400.530   115129407.222       -2398.440          41.069  
R06  23582748.903   125841948.087       -1738.687          30.007  
R07  23376524.969   125136363.2281       1476.219          26.471  
R15  22106991.748   118133026.808        3566.965          29.415  
R17  22972356.169   122929635.363        3722.567          34.626  
R23  19609161.460   104895819.913       -2157.619          37.843  
R24  19695212.988   105319113.522        1538.394          34.670  
> 2019  8  1  8  3 49.0000000  0 25
C11  25785509.963   134271894.619        2881.085          29.804  
C12  21369289.449   111275491.038        -409.852          33.461  
C13  38887105.317   202495347.2301      -1180.151          25.282  
C20  26426299.554   137608697.921        -808.815          31.113  
C24  22764028.891   118538273.399       -1980.216          40.005  
C25  23332993.005   121501030.091        1323.538          30.199  
C26  25439348.306                       -3730.099          21.537  
E27                                                                                                                                  24447667.232    95937895.896        1142.015          33.804  
E36                                                                                                                                  25681255.337   100778756.568       -2009.939          29.059  
G02  25443820.610                       -3413.302          22.772  
G05  23567486.169   123847947.823         367.326          35.209  
G09  25252319.783                         549.072          21.973    25252323.081    99095575.523         409.288          29.748  
G16  23327470.828   122586703.161        3088.326          23.789  
G21  22008670.914   115656401.707        2143.761          35.538  
G23  25218010.035   132521544.734        -956.985          29.315  
G25  22585805.572   118689183.250       -3411.035          30.905  
G26  21358265.480   112238429.956        1909.164          34.164    21358262.782    83814406.004        1425.647          34.648  
G29  20686247.709   108706933.739       -1817.938          38.204  
G31  21908857.713   115131807.474       -2400.252          41.419  
R06  23583082.272   125843688.796       -1740.709          29.807  
R07  23376255.755   125134889.100        1474.129          26.513  
R15  22106331.305   118129461.615        3565.192          29.552  
R17  22971647.160   122925914.374        3720.989          34.773  
R23  19609572.176   104897979.438       -2159.525          37.878  
R24  19694931.183   105317577.133        1536.389          35.204  
> 2019  8  1  8  3 50.0000000  0 26
C11  25784955.647   134269014.618        2880.001          29.639  
C12  21369365.596   111275902.220        -411.182          33.908  
C13  38887330.461                       -1181.260          25.949  
C20  26426452.747   137609508.304        -810.383          31.003  
C24  22764409.627   118540255.008       -1981.609          40.416  
C25  23332737.882   121499708.051        1322.041          29.160  
C26  25440064.810                       -3726.545          22.507  
E27                                                                                                                                  24447376.733    95936754.739        1141.156          34.166  
E36                                                                                                                                  25681767.982   100780767.318       -2010.749          28.474  
G02  25444461.266                       -3418.345          22.075  
G05  23567417.516   123847582.110         365.713          35.126  
G09  25252224.449                         540.056          20.207    25252218.453    99095167.015         408.508          29.648  
G16  23326888.331   122583616.149        3087.012          25.206  
G21  22008265.295   115654259.284        2142.423          35.622  
G23  25218193.508   132522503.288        -958.554          29.899  
G25  22586456.122   118692595.537       -3412.287          29.638  
G26  21357901.532   112236522.091        1907.865          31.679    21357899.434    83812981.332        1424.672          35.712  
G29  20686594.269   108708753.079       -1819.340          38.555  
G31  21909313.398   115134209.200       -2401.726          42.088  
R06  23583398.253   125845431.310       -1742.514          28.838  
R07  23375977.847   125133416.726        1472.373          27.086  
R13  20986205.952                       -3811.211          25.449  
R15  22105652.875                        3563.051          29.114  
R17  22970952.540   122922194.567        3719.807          34.364  
R23  19609974.797   104900140.581       -2161.142          37.792  
R24  19694633.489   105316042.348        1534.784          35.699  
> 2019  8  1  8  3 51.0000000  0 26
C11  25784399.831   134266135.349        2879.268          28.158  
C12  21369445.641   111276314.468        -412.248          33.061  
C13  38887557.104   202497710.2671      -1181.817          26.761  
C20  26426609.539   137610319.766        -811.462          30.125  
C24  22764790.364   118542237.733       -1982.725          39.000  
C25  23332485.756   121498387.162        1320.889          30.314  
C26  25440778.316                       -3728.658          22.219  
E27                                                                                                                                  24447086.834    95935614.336        1140.404          33.388  
E36                                                                                                                                  25682280.327   100782778.756       -2011.438          28.468  
G02  25445116.313                       -3422.806          22.764  
G05  23567346.765   123847217.716         364.394          35.466  
G09  25252117.423                         544.985          21.212    25252114.425    99094759.655         407.360          28.962  
G16  23326300.438   122580529.929        3086.220          26.112  
G21  22007856.378   115652117.904        2141.379          34.200  
G23  25218377.880   132523463.071        -959.783          31.337  
G25  22587103.973   118696008.749       -3413.211          34.968  
G26  21357539.983   112234615.331        1906.760          35.352    21357536.985    83811557.480        1423.852          34.745  
G29  20686942.028   108710573.475       -1820.396          39.542  
G31  21909772.080   115136612.074       -2402.874          42.562  
R06  23583730.123   125847175.218       -1743.908          27.625  
R07  23375690.946                        1470.246          26.913  
R13  20986908.665                       -3814.033          24.599  
R15  22104987.036                        3561.424          27.459  
R17  22970259.720   122918475.721        3718.846          33.911  
R23  19610385.812   104902302.977       -2162.397          37.794  
R24  19694331.298   105314508.967        1533.382          34.622  
> 2019  8  1  8  3 52.0000000  0 25
C11  25783846.115   134263256.687        2878.662          26.823  
C12  21369524.186   111276727.742        -413.273          34.061  
C13  38887786.446   202498892.961       -1182.694          27.191  
C20  26426763.332   137611132.382        -812.617          29.802  
C24  22765170.800   118544221.609       -1983.876          38.184  
C25  23332232.731   121497067.312        1319.850          30.660  
C26  25441487.325                       -3733.565          21.080  
E27                                                                                                                                  24446794.536    95934474.591        1139.745          32.295  
E36                                                                                                                                  25682792.673   100784790.759       -2012.003          28.815  
G05  23567279.312   123846854.566         363.150          35.099  
G09  25252002.902   132700193.9311        544.392          24.699    25252010.697                         406.210          28.380  
G16  23325711.646   122577444.537        3085.392          26.531  
G21  22007450.159   115649977.820        2140.085          32.247  
G23  25218560.154   132524423.943        -960.873          32.511  
G25  22587750.925   118699422.824       -3414.076          37.730    22587753.624                       -2549.910          28.122  
G26  21357177.534   112232709.576        1905.755          36.799    21357173.936    83810134.316        1423.164          33.871  
G29  20687286.789   108712394.919       -1821.444          40.304  
G31  21910231.362   115139016.061       -2403.987          42.149  
R06  23584051.201                       -1746.195          27.374  
R07  23375428.028                        1470.326          28.996  
R13  20987644.656                       -3815.615          23.406  
R15  22104328.991                        3561.484          26.525  
R17  22969563.602   122914757.727        3717.995          34.410  
R23  19610795.329   104904466.534       -2163.557          36.927  
R24  19694059.686   105312976.719        1532.248          33.842  
> 2019  8  1  8  3 53.0000000  0 27
C11  25783299.893                        2877.457          26.626  
C12  21369603.931   111277142.037        -414.295          33.185  
C13  38888015.787                       -1183.401          28.450  
C20  26426920.723   137611946.231        -813.848          30.007  
C24  22765551.237   118546206.581       -1984.972          38.507  
C25  23331978.208   121495748.533        1318.778          32.045  
C26  25442202.630                       -3731.251          21.006  
E02                                                                                                                                  26789391.690                       -2387.356          22.764  
E27                                                                                                                                  24446504.937    95933335.589        1139.002          32.339  
E36                                                                                                                                  25683305.917   100786803.352       -2012.593          30.098  
G02  25446416.812   133721844.3051      -3419.201          24.362  
G05  23567210.060   123846492.689         361.876          34.146  
G09  25251897.975                         542.325          24.776    25251909.367    99093947.5501        405.594          28.224  
G16  23325121.654   122574359.805        3084.732          27.341  
G21  22007041.842   115647838.476        2139.343          32.652  
G23  25218744.227   132525386.048        -962.104          32.069  
G25  22588401.775   118702837.854       -3415.029          37.099    22588403.574    88641720.9811      -2550.130          27.122  
G26  21356816.883   112230804.798        1904.778          37.561    21356811.187    83808711.937        1422.379          33.522  
G29  20687634.249   108714217.315       -1822.396          39.878  
G31  21910687.647   115141421.267       -2405.205          43.362  
R06  23584384.570   125850667.4461      -1746.927          26.372  
R07  23375145.923   125129007.7871       1468.269          29.141  
R13  20988355.464                       -3811.578          23.026  
R15  22103654.159   118115211.6251       3561.077          26.753  
R17  22968868.383   122911040.589        3717.137          34.097  
R23  19611192.854   104906631.405       -2164.871          36.858  
R24  19693769.487   105311445.875        1530.844          34.463  
> 2019  8  1  8  3 54.0000000  0 28
C05  40103288.071                        -214.474          22.990  
C11  25782744.078   134257502.0301       2876.828          26.122  
C12  21369681.277   111277557.442        -415.405          32.933  
C13  38888242.430   202501260.2491      -1184.120          29.631  
C20  26427078.115   137612761.309        -815.079          29.926  
C24  22765932.873   118548192.686       -1986.105          38.577  
C25  23331727.281   121494430.986        1317.547          32.538  
C26  25442923.630                       -3731.575          21.487  
E02                                                                                                                                  26790001.168                       -2388.907          19.355  
E27                                                                                                                                  24446216.536    95932197.298        1138.291          32.648  
E36                                                                                                                                  25683818.263   100788816.691       -2013.338          30.515  
G02  25447076.955   133725264.430       -3420.125          23.927  
G05  23567141.108   123846132.171         360.519          34.190  
G09  25251797.544   132699108.9871        541.800          25.107    25251805.639    99093542.917         404.633          28.028  
G16  23324532.562   122571275.991        3083.815          28.514  
G21  22006631.126   115645700.391        2138.086          33.791  
G23  25218926.800   132526349.287        -963.240          32.784  
G25  22589052.324   118706253.731       -3415.877          34.123    22589053.224    88644271.861       -2550.880          25.136  
G26  21356452.036   112228901.170        1903.627          36.178    21356449.338    83807290.383        1421.554          34.141  
G29  20687980.809   108716040.874       -1823.559          39.609  
G31  21911143.631   115143827.635       -2406.368          43.101  
R06  23584704.149   125852415.531       -1748.085          25.874  
R07  23374886.303   125127541.052        1466.735          28.820  
R13  20989060.576                       -3813.837          21.915  
R15  22102982.624                        3559.760          23.307  
R17  22968183.957   122907324.340        3716.250          34.529  
R23  19611596.374   104908797.493       -2166.088          36.457  
R24  19693489.781   105309916.357        1529.518          34.805  
> 2019  8  1  8  3 55.0000000  0 28
C05  40103319.250                        -214.457          26.051  
C11  25782187.963   134254625.561        2876.469          27.435  
C12  21369763.720   111277973.730        -416.289          32.921  
C13  38888470.872                       -1184.003          27.362  
C20  26427234.606   137613577.392        -816.083          29.623  
C24  22766316.307   118550179.739       -1987.053          36.259  
C25  23331473.357   121493114.382        1316.605          32.730  
C26  25443644.332                       -3734.130          22.749  
E02                                                                                                                                  26790611.845                       -2394.375          21.294  
E27                                                                                                                                  24445925.438    95931059.615        1137.682          32.194  
E36                                                                                                                                  25684332.107   100790830.454       -2013.763          28.920  
G02  25447726.006   133728684.473       -3420.043          23.598  
G05  23567071.256   123845772.798         359.372          35.049  
G09  25251692.317   132698567.782         541.205          25.230    25251702.510    99093139.164         403.753          28.355  
G16  23323949.466   122568192.824        3083.167          27.283  
G21  22006226.706   115643563.197        2137.194          31.837  
G23  25219108.474   132527313.575        -964.287          32.008  
G25  22589701.075   118709670.425       -3416.694          35.920    22589703.174    88646823.372       -2551.511          25.187  
G26  21356092.285   112226998.369        1902.801          35.415    21356087.788    83805869.501        1420.882          33.764  
G29  20688327.669   108717865.244       -1824.370          36.713  
G31  21911602.313   115146235.002       -2407.367          43.602  
R06  23585033.021   125854165.092       -1749.561          25.924  
R07  23374604.198   125126075.539        1465.512          29.648  
R13  20989757.593                       -3818.926          21.874  
R15  22102332.074                        3557.945          22.649  
R17  22967483.042   122903608.907        3715.433          34.067  
R23  19612007.989   104910964.670       -2167.178          37.253  
R24  19693201.680   105308388.036        1528.321          34.434  
> 2019  8  1  8  3 56.0000000  0 28
C05  40103366.617                        -214.413          24.916  
C11  25781636.644   134251749.315        2876.247          27.831  
C12  21369843.465   111278390.504        -416.774          32.381  
C13  38888700.813   202503629.4341      -1184.670          28.106  
C20  26427391.697   137614394.027        -816.635          30.166  
C24  22766698.243   118552167.315       -1987.576          36.915  
C25  23331221.831   121491798.259        1316.122          32.811  
C26  25444359.636   132495429.6241      -3733.350          23.461  
E02                                                                                                                                  26791219.824   105134316.6811      -2391.469          21.674  
E27                                                                                                                                  24445635.239    95929922.131        1137.484          31.760  
E36                                                                                                                                  25684844.452   100792844.450       -2013.996          29.184  
G02  25448372.958                       -3420.723          23.639  
G05  23567005.002   123845414.005         358.793          35.428  
G09  25251597.583                         540.067          24.834    25251599.681    99092735.778         403.386          27.951  
G16  23323363.671   122565109.951        3082.873          27.987  
G21  22005822.286   115641426.447        2136.750          31.992  
G23  25219300.641   132528278.443        -964.868          32.643  
G25  22590347.428   118713087.519       -3417.094          34.658    22590352.524    88649375.068       -2551.696          25.241  
G26  21355733.134   112225096.084        1902.286          35.450    21355725.639    83804448.923        1420.578          33.918  
G29  20688672.730   108719690.154       -1824.910          37.951  
G31  21912061.296   115148642.902       -2407.900          43.487  
R06  23585362.194                       -1751.897          25.604  
R07  23374345.178   125124610.861        1464.679          28.892  
R13  20990476.196                       -3821.216          22.708  
R15  22101665.335                        3556.343          23.285  
R17  22966786.025   122899893.704        3715.202          34.427  
R23  19612400.418   104913132.451       -2167.781          36.626  
R24  19692912.680   105306860.441        1527.595          34.722  
> 2019  8  1  8  3 57.0000000  0 27
C11  25781086.825   134248873.087        2876.228          28.939  
C12  21369922.910   111278807.641        -417.136          32.566  
C13  38888922.959   202504814.162       -1184.727          29.668  
C20  26427552.086   137615211.133        -817.106          30.339  
C24  22767078.080   118554155.374       -1988.059          37.336  
C25  23330970.305   121490482.606        1315.653          30.785  
C26  25445079.438                       -3733.055          22.886  
E02                                                                                                                                  26791833.500                       -2387.031          17.864  
E27                                                                                                                                  24445347.138    95928784.881        1137.250          32.427  
E36                                                                                                                                  25685358.296   100794858.484       -2014.034          30.205  
G02  25449027.105   133735526.6551      -3420.858          24.663  
G05  23566935.150   123845055.904         358.101          33.579  
G09  25251493.255   132697488.5291        539.527          25.077    25251496.852    99092332.906         402.872          27.784  
G16  23322779.076   122562027.157        3082.794          27.025  
G21  22005413.969   115639290.066        2136.380          31.980  
G23  25219482.915   132529243.803        -965.360          32.087  
G25                                                                  22591005.772    88651928.998       -2553.929          21.588  
G26  21355368.586   112223194.104        1901.979          36.010    21355364.089    83803028.601        1420.323          34.623  
G29  20689021.988   108721515.375       -1825.221          40.287  
G31  21912519.079   115151051.252       -2408.351          43.382  
R06  23585694.064   125857666.5701      -1751.124          27.364  
R07  23374072.067   125123146.808        1464.053          30.322  
R13  20991199.295                       -3818.071          22.135  
R15  22100997.997   118100975.3711       3558.466          27.124  
R17  22966091.706   122896178.679        3715.025          35.242  
R23  19612814.431   104915300.674       -2168.223          35.637  
R24  19692630.875   105305333.406        1527.035          34.744  
> 2019  8  1  8  3 58.0000000  0 27
C11  25780533.108   134245997.258        2875.829          29.181  
C12  21370007.152   111279225.395        -417.755          32.164  
C13  38889148.703   202505999.126       -1184.964          29.943  
C20  26427707.679   137616029.065        -817.931          30.043  
C24  22767460.315   118556144.189       -1988.816          37.315  
C25  23330716.681   121489167.661        1314.945          31.479  
C26  25445795.342                       -3733.945          23.477  
E02                                                                                                                                  26792446.275                       -2388.012          17.020  
E27                                                                                                                                  24445055.740    95927648.040        1136.840          32.955  
E36                                                                                                                                  25685871.241   100796872.870       -2014.386          30.338  
G02  25449677.955                       -3421.927          24.892  
G05  23566865.898   123844698.701         357.203          34.787  
G09  25251386.529                         538.174          24.614    25251393.724                         401.600          28.483  
G16  23322189.984                        3081.417          27.191  
G21  22005009.549   115637154.383        2135.683          31.310  
G23  25219670.286   132530209.878        -966.075          31.042  
G25  22591657.221   118719922.6011      -3417.829          32.202    22591653.624                       -2556.524          19.120  
G26  21355002.839   112221292.684        1901.421          36.566    21355002.240    83801608.732        1419.868          34.573  
G29  20689368.848   108723341.141       -1825.766          39.615  
G31  21912976.262   115153460.371       -2409.118          42.102  
R06  23586018.739   125859418.662       -1752.092          26.781  
R07  23373781.268   125121683.769        1463.039          30.263  
R13  20991898.411                       -3819.414          21.165  
R15  22100327.062   118097417.468        3557.903          27.206  
R17  22965392.290   122892464.170        3714.509          35.251  
R23  19613217.952   104917469.852       -2169.178          37.088  
R24  19692364.360   105303807.308        1526.098          33.506  
> 2019  8  1  8  3 59.0000000  0 26
C11  25779980.891   134243121.938        2875.319          27.390  
C12  21370086.297   111279643.971        -418.576          33.951  
C13  38889377.744   202507184.576       -1185.450          29.937  
C20  26427864.470   137616847.974        -818.909          28.407  
C24  22767842.850   118558133.847       -1989.658          38.922  
C25  23330464.256   121487853.658        1314.003          31.397  
C26  25446509.148                       -3734.930          21.729  
E27                                                                                                                                  24444766.440    95926511.713        1136.327          32.593  
E36                                                                                                                                  25686385.385   100798887.719       -2014.849          29.412  
G02  25450327.305                       -3420.488          23.498  
G05  23566799.944   123844342.642         356.059          34.013  
G09  25251288.797   132696412.1331        537.656          25.648    25251291.794    99091529.0681        401.522          27.317  
G16  23321600.892                        3080.804          25.340  
G21  22004605.129   115635019.557        2134.826          33.647  
G23  25219847.463   132531177.017        -967.139          32.139  
G25  22592305.372   118723341.062       -3418.460          33.721    22592301.475                       -2551.596          18.691  
G26  21354642.189   112219392.190        1900.494          37.434    21354639.491    83800189.490        1419.242          34.236  
G29  20689716.607   108725167.900       -1826.758          38.577  
G31  21913438.542   115155870.473       -2410.103          43.160  
R06  23586352.108   125861172.100       -1753.438          27.054  
R07  23373508.757   125120221.972        1461.797          28.141  
R13  20992629.605                       -3820.457          20.963  
R15  22099658.225                        3556.369          26.967  
R17  22964705.765   122888750.369        3713.801          33.663  
R23  19613616.976   104919639.987       -2170.135          37.950  
R24  19692054.075   105302282.299        1525.009          33.220  
> 2019  8  1  8  4  0.0000000  0 26
C11  25779428.973   134240247.382        2874.556          26.928  
C12  21370166.641   111280063.561        -419.590          33.883  
C13  38889607.685   202508370.778       -1186.202          28.417  
C20  26428020.362   137617667.884        -819.909          28.992  
C24  22768224.186   118560124.605       -1990.758          38.619  
C25  23330212.130   121486540.679        1312.980          32.648  
C26  25447224.153                       -3739.097          19.957  
E27                                                                                                                                  24444477.440    95925376.088        1135.625          32.697  
E36                                                                                                                                  25686898.330   100800903.188       -2015.468          29.894  
G02  25450979.653                       -3422.800          23.227  
G05  23566733.690   123843987.756         354.886          33.695  
G09  25251190.165   132695875.639         536.494          27.702    25251191.064    99091128.416         400.652          27.237  
G16  23321016.896   122552782.5541       3080.947          27.130  
G21  22004197.111   115632885.714        2133.844          34.386  
G23  25220030.636   132532145.216        -968.199          32.525  
G25  22592955.922   118726760.319       -3419.257          33.475  
G26  21354282.138   112217492.610        1899.580          38.417    21354278.241    83798770.969        1418.520          34.079  
G29  20690063.167   108726995.599       -1827.699          38.842  
G31  21913895.426   115158281.647       -2411.174          42.805  
R06  23586678.582   125862926.892       -1754.792          29.471  
R07  23373247.937   125118761.429        1460.543          27.888  
R13  20993366.795                       -3821.187          20.355  
R15  22098990.287   118090304.0211       3556.314          28.014  
R17  22964006.649   122885037.276        3713.093          32.030  
R23  19614023.794   104921811.365       -2171.378          36.721  
R24  19691775.567   105300758.670        1523.629          32.033  
> 2019  8  1  8  4  1.0000000  0 25
C11  25778878.554   134237372.974        2874.409          26.386  
C12  21370244.887   111280483.758        -420.197          33.723  
C13  38889834.328   202509557.243       -1186.465          28.251  
C20  26428178.053   137618488.635        -820.752          27.956  
C24  22768606.422   118562115.968       -1991.363          38.831  
C25  23329960.305   121485228.347        1312.332          32.506  
C26  25447944.854                       -3735.808          19.419  
E27                                                                                                                                  24444187.541    95924240.817        1135.271          32.465  
E36                                                                                                                                  25687412.474   100802918.907       -2015.719          29.931  
G05  23566664.737   123843633.686         354.070          33.771  
G09  25251084.938   132695339.347         536.292          26.760    25251088.535    99090728.349         400.067          26.696  
G16  23320428.403                        3080.732          26.297  
G21  22003795.090   115630752.456        2133.258          34.758  
G23  25220214.109   132533114.078        -968.862          31.950  
G25  22593606.472   118730180.132       -3419.814          33.692  
G26  21353917.590   112215593.605        1899.006          37.927    21353917.291    83797352.918        1418.051          34.149  
G29  20690411.526   108728823.873       -1828.274          39.064  
G31  21914355.008   115160693.463       -2411.816          42.809  
R06  23587008.654   125864682.582       -1755.690          28.641  
R07  23372971.828   125117301.929        1459.500          28.396  
R13  20994062.613                       -3819.274          20.544  
R15  22098317.253                        3554.833          25.308  
R17  22963328.219   122881324.664        3712.612          32.086  
R23  19614431.811   104923983.516       -2172.151          36.670  
R24  19691484.169   105299235.720        1522.950          32.250  
> 2019  8  1  8  4  2.0000000  0 26
C11  25778326.336   134234499.006        2873.968          26.482  
C12  21370325.531   111280904.630        -420.872          33.529  
C13  38890061.571   202510743.906       -1186.663          26.734  
C20  26428336.643   137619310.231        -821.596          27.335  
C24  22768988.957   118564108.094       -1992.127          37.629  
C25  23329706.980   121483916.773        1311.574          32.544  
C26  25448663.757                       -3733.140          22.670  
E27                                                                                                                                  24443899.141    95923105.901        1134.916          32.648  
E36                                                                                                                                  25687926.019   100804934.885       -2015.978          29.562  
G02  25452284.350                       -3420.755          22.788  
G05  23566597.584   123843280.549         353.137          34.540  
G09  25250982.409   132694804.522         534.825          26.770    25250986.006                         398.603          26.439  
G16  23319845.307   122546621.2311       3080.132          24.458  
G21  22003386.473   115628619.891        2132.565          33.937  
G23  25220396.683   132534083.752        -969.673          32.050  
G25  22594257.321   118733600.440       -3420.308          31.853  
G26  21353559.039   112213695.264        1898.341          36.387    21353556.341    83795935.355        1417.563          34.095  
G29  20690760.185   108730652.777       -1828.905          39.697  
G31  21914811.592   115163106.082       -2412.619          42.332  
R06  23587331.230   125866439.308       -1756.726          28.633  
R07  23372704.114   125115843.469        1458.460          26.622  
R13  20994778.217                       -3821.445          21.449  
R15  22097660.408                        3553.041          26.866  
R17  22962630.901   122877612.560        3712.104          33.338  
R23  19614834.732   104926156.510       -2172.994          36.820  
R24  19691214.056   105297713.762        1521.958          33.245  
> 2019  8  1  8  4  3.0000000  0 26
C11  25777770.521                        2872.520          26.305  
C12  21370409.473   111281326.463        -421.832          33.435  
C13  38890286.715                       -1188.320          25.324  
C20  26428493.435   137620132.751        -822.521          27.716  
C24  22769370.893   118566101.240       -1993.146          37.595  
C25  23329452.756   121482606.242        1310.531          32.865  
C26  25449386.856                       -3734.150          22.526  
E27                                                                                                                                  24443608.942    95921971.699        1134.202          32.285  
E36                                                                                                                                  25688440.463   100806951.527       -2016.642          29.890  
G02  25452932.202                       -3425.144          20.851  
G05  23566533.428   123842928.639         351.910          34.933  
G09  25250879.880   132694270.816         533.706          27.326    25250885.276    99089930.3991        398.583          27.121  
G16  23319255.016   122543541.683        3079.548          25.149  
G21  22002981.753   115626488.349        2131.542          34.112  
G23  25220579.856   132535054.594        -970.842          31.619  
G25  22594911.168   118737021.608       -3421.168          32.310  
G26  21353198.089   112211797.887        1897.377          36.509    21353195.091    83794518.468        1416.888          33.322  
G29  20691108.544   108732482.654       -1829.876          39.645  
G31  21915271.773   115165519.775       -2413.693          42.319  
R06  23587657.704   125868197.402       -1758.094          28.114  
R07  23372450.489                        1456.300          24.407  
R13  20995494.122                       -3819.259          21.317  
R15  22096987.974   118079639.2241       3554.161          28.203  
R17  22961938.980   122873901.238        3711.321          32.995  
R23  19615239.153   104928330.669       -2174.159          36.746  
R24  19690919.360   105296193.081        1520.681          33.778  
> 2019  8  1  8  4  4.0000000  0 26
C11  25777222.500   134228753.2061       2872.616          27.170  
C12  21370490.417   111281749.297        -422.834          33.272  
C13  38890521.152                       -1188.345          25.095  
C20  26428652.625   137620956.562        -823.811          26.962  
C24  22769752.828   118568095.539       -1994.299          37.510  
C25  23329205.127   121481296.799        1309.443          33.555  
C26  25450103.960   132525309.5031      -3736.944          23.203  
E27                                                                                                                                  24443320.841    95920838.137        1133.561          32.224  
E36                                                                                                                                  25688954.007   100808968.757       -2017.230          29.016  
G02  25453593.244                       -3429.517          21.364  
G05  23566463.577   123842577.966         350.673          35.297  
G09  25250780.648   132693738.259         532.557          27.879    25250783.646    99089532.657         397.741          26.787  
G16  23318671.020                        3078.685          24.895  
G21  22002573.735   115624357.852        2130.497          34.438  
G23  25220765.727   132536026.544        -971.950          31.580  
G25  22595560.519   118740443.607       -3421.999          32.862  
G26  21352835.939   112209901.535        1896.352          36.572    21352834.141    83793102.341        1416.127          33.323  
G29  20691456.902   108734313.545       -1830.891          38.821  
G31  21915731.954   115167934.583       -2414.808          42.326  
R06  23587999.168                       -1759.702          27.700  
R07  23372167.485                        1454.071          23.984  
R13  20996196.835                       -3821.573          21.060  
R15  22096323.933   118076086.026        3553.198          28.259  
R17  22961242.862   122870190.780        3710.458          33.162  
R23  19615648.369   104930506.031       -2175.361          37.096  
R24  19690638.455   105294673.630        1519.451          33.939  
> 2019  8  1  8  4  5.0000000  0 24
C11  25776670.282   134225881.363        2871.844          27.527  
C12  21370571.361   111282173.072        -423.775          33.965  
C13  38890749.295   202514307.9281      -1188.632          26.917  
C20  26428810.915   137621781.412        -824.850          30.018  
C24  22770137.162   118570090.765       -1995.226          38.281  
C25  23328951.803   121479988.307        1308.493          34.084  
C26  25450822.262                       -3740.998          24.080  
E27                                                                                                                                  24443032.441    95919705.212        1132.925          32.358  
E36                                                                                                                                  25689469.350   100810986.546       -2017.789          27.999  
G05  23566402.419   123842228.477         349.489          34.368  
G09  25250682.316   132693206.852         531.407          30.045    25250682.316                         397.131          27.847  
G16  23318090.922   122537385.5001       3077.955          25.547  
G21  22002173.512   115622228.252        2129.600          34.770  
G23  25220949.200   132536999.636        -973.092          29.290  
G26  21352475.289   112208006.111        1895.425          37.194    21352472.891    83791686.946        1415.395          33.209  
G29  20691807.060   108736145.378       -1831.833          38.955  
G31  21916194.834   115170350.466       -2415.882          41.982  
R06  23588327.741                       -1761.148          26.677  
R07  23371883.282   125111475.7741       1454.669          29.443  
R13  20996916.637                       -3827.608          20.388  
R15  22095663.191   118072533.842        3552.184          26.973  
R17  22960545.545   122866481.141        3709.640          34.133  
R23  19616054.588   104932682.546       -2176.515          36.792  
R24  19690354.551   105293155.430        1518.200          34.734  
> 2019  8  1  8  4  6.0000000  0 26
C11  25776122.861   134223009.743        2871.619          27.366  
C12  21370650.507   111282597.411        -424.339          34.159  
C13  38890973.839   202515496.719       -1188.791          27.353  
C20  26428968.906   137622606.892        -825.480          29.973  
C24  22770520.297   118572086.657       -1995.892          37.762  
C25  23328703.874   121478680.578        1307.729          33.394  
C26  25451542.364                       -3736.195          23.748  
E27                                                                                                                                  24442742.841    95918572.621        1132.591          32.910  
E36                                                                                                                                  25689982.895   100813004.557       -2018.011          28.791  
G02  25454888.947                       -3425.989          23.487  
G05  23566331.068   123841879.784         348.692          34.050  
G09  25250582.186   132692676.316         530.536          31.528    25250580.687    99088739.6501        396.120          28.476  
G16  23317508.425   122534307.751        3077.749          26.537  
G21  22001769.992   115620099.230        2129.023          35.558  
G23  25221136.870   132537973.357        -973.721          30.001  
G25  22596866.415   118747289.7651      -3423.212          29.741  
G26  21352117.337   112206111.266        1894.845          38.012    21352112.240    83790271.875        1415.072          34.041  
G29  20692154.220   108737977.789       -1832.412          40.646  
G31  21916650.219   115172767.004       -2416.538          41.893  
R06  23588665.906   125873479.4651      -1761.847          26.935  
R07  23371605.374   125110022.130        1453.644          29.805  
R13  20997627.445                       -3828.722          20.340  
R15  22094988.058                        3550.975          26.053  
R17  22959853.324   122862771.852        3709.289          34.326  
R23  19616465.004   104934859.852       -2177.305          36.116  
R24  19690073.046   105291638.024        1517.406          34.534  
> 2019  8  1  8  4  7.0000000  0 26
C11  25775568.245   134220138.921        2870.823          27.276  
C12  21370734.149   111283022.887        -425.475          33.479  
C13  38891202.880                       -1187.641          27.486  
C20  26429128.695   137623433.628        -826.737          30.451  
C24  22770902.532   118574083.816       -1997.159          36.343  
C25  23328450.850   121477373.987        1306.591          32.004  
C26  25452259.467                       -3738.278          23.323  
E27                                                                                                                                  24442455.040    95917440.800        1131.820          33.204  
E36                                                                                                                                  25690497.339   100815023.231       -2018.673          29.973  
G02  25455541.595                       -3426.319          23.268  
G05  23566266.913   123841532.343         347.441          35.095  
G09  25250481.755   132692147.010         529.306          28.466    25250482.055    99088344.438         395.212          28.901  
G16  23316920.532   122531230.499        3077.251          28.450  
G21  22001362.274   115617971.481        2127.749          33.634  
G23  25221322.442   132538948.260        -974.902          33.653  
G25  22597516.065   118750713.821       -3424.056          34.379    22597512.767                       -2560.134          26.379  
G26  21351755.187   112204217.411        1893.854          36.415    21351751.890    83788857.692        1414.182          34.174  
G29  20692502.878   108739811.276       -1833.487          40.006  
G31  21917114.897   115175184.753       -2417.749          42.913  
R06  23588997.477   125875242.675       -1763.210          27.791  
R07  23371338.259   125108569.929        1452.201          29.283  
R13  20998340.951                       -3825.366          20.983  
R15  22094344.104                        3548.757          24.669  
R17  22959158.405   122859063.479        3708.373          35.859  
R23  19616878.118   104937038.340       -2178.489          35.798  
R24  19689782.247   105290121.993        1516.030          33.887  
> 2019  8  1  8  4  8.0000000  0 26
C11  25775017.826                        2869.720          26.923  
C12  21370816.592   111283449.082        -426.195          32.633  
C13  38891430.423   202517876.4511      -1190.164          26.574  
C20  26429286.686                        -827.940          30.080  
C24  22771286.866   118576081.698       -1997.882          37.169  
C25  23328199.923   121476068.050        1305.937          32.685  
C26  25452980.468                       -3739.259          23.161  
E02                                                                                                                                  26798541.356                       -2399.440          23.920  
E27                                                                                                                                  24442166.640    95916309.498        1131.302          32.202  
E36                                                                                                                                  25691010.583   100817042.373       -2019.143          29.050  
G02  25456198.441   133773190.2391      -3426.864          25.171  
G05  23566200.059   123841186.081         346.262          35.298  
G09  25250375.928                         528.876          26.292    25250379.226    99087949.766         394.672          28.154  
G16  23316335.337   122528154.181        3076.319          28.271  
G21  22000951.558   115615844.396        2127.084          32.676  
G23  25221510.112   132539924.142        -975.883          32.131  
G25  22598160.019   118754138.691       -3424.870          38.693    22598165.416    88680016.1381      -2558.147          31.304  
G26  21351396.336   112202324.332        1893.079          37.482    21351392.139    83787444.016        1413.676          33.845  
G29  20692853.036   108741645.502       -1834.226          39.335  
G31  21917570.881   115177603.252       -2418.498          40.783  
R06  23589318.555   125877007.011       -1764.336          27.593  
R07  23371068.446   125107118.908        1451.021          29.560  
R15  22093670.170                        3548.854          25.892  
R17  22958469.482   122855355.802        3707.677          34.146  
R23  19617274.144   104939217.774       -2179.434          35.520  
R24  19689495.646   105288607.031        1514.962          34.223  
> 2019  8  1  8  4  9.0000000  0 27
C11  25774461.412                        2871.300          26.727  
C12  21370899.034   111283875.965        -426.883          32.702  
C13  38891658.565   202519066.926       -1190.475          27.281  
C20  26429444.376   137625089.9251       -828.767          30.802  
C24  22771669.102   118578080.462       -1998.764          34.128  
C25  23327950.196   121474762.975        1305.074          33.974  
C26  25453697.872                       -3738.714          22.368  
E02                                                                                                                                  26799149.035                       -2392.163          25.709  
E27                                                                                                                                  24441879.139    95915178.470        1131.028          32.829  
E36                                                                                                                                  25691525.927   100819062.057       -2019.683          28.679  
G02  25456848.091   133776617.789       -3427.550          24.585  
G05  23566135.304   123840840.818         345.262          34.940  
G09                                                                  25250278.496    99087555.901         393.865          28.094  
G16  23315750.142   122525078.434        3075.747          30.186  
G21  22000549.536   115613717.962        2126.434          30.245  
G23  25221694.184   132540900.747        -976.605          33.278  
G25  22598812.668   118757564.128       -3425.438          37.190    22598817.164    88682573.988       -2557.850          30.937  
G26  21351036.585   112200431.940        1892.392          37.790    21351031.788    83786030.800        1413.216          34.265  
G29  20693201.395   108743480.585       -1835.083          40.085  
G31  21918033.461   115180022.584       -2419.333          41.623  
R06  23589664.515   125878772.563       -1765.552          29.196  
R07  23370794.136   125105669.183        1449.725          29.120  
R13  20999773.959                       -3827.242          21.885  
R15  22093008.828   118058331.9101       3549.330          28.498  
R17  22957773.964   122851648.540        3707.262          35.219  
R23  19617688.157   104941398.267       -2180.493          35.362  
R24  19689228.831   105287092.910        1514.122          33.344  
> 2019  8  1  8  4 10.0000000  0 28
C05  40103972.797                        -220.213          23.305  
C11  25773913.391                        2867.398          26.937  
C12  21370978.779   111284303.793        -427.828          33.096  
C13  38891883.110   202520257.402       -1190.476          32.277  
C20  26429603.266   137625919.763        -829.838          36.670  
C24  22772054.934                       -2001.838          32.405  
C25  23327701.968   121473458.695        1304.280          41.445  
C26  25454433.263                       -3738.185          21.551  
E02                                                                                                                                  26799755.515                       -2396.150          25.288  
E27                                                                                                                                  24441591.638    95914050.372        1128.098          33.087  
E36                                                                                                                                  25692041.270   100821082.207       -2020.150          31.289  
G02  25457498.640   133780045.794       -3428.005          29.234  
G05  23566068.450                         344.113          35.020  
G09  25250177.166   132690565.4631        526.197          31.072    25250178.665    99087163.063         392.838          37.650  
G16  23315163.448   122522003.717        3074.716          34.541  
G21  22000147.515   115611593.000        2124.962          30.548  
G23  25221881.255   132541878.491        -977.743          42.954  
G25  22599466.515                       -3426.504          33.561    22599468.613    88685132.432       -2558.444          32.761  
G26  21350674.735                        1892.083          42.345    21350673.836                        1410.307          33.750  
G29  20693552.452                       -1834.528          37.400  
G31  21918496.041   115182442.795       -2420.210          42.715  
R06  23589984.094   125880539.448       -1766.885          36.434  
R07  23370519.826                        1448.888          32.890  
R13  21000518.344                       -3829.770          20.878  
R15  22092333.096   118054783.305        3548.605          38.852  
R17  22957089.538   122847941.742        3706.798          35.825  
R23  19618101.571                       -2183.325          36.199  
R24  19688944.927                        1514.231          30.932  
> 2019  8  1  8  4 11.0000000  0 28
C11  25773365.670   134208660.7341       2868.648          32.400  
C12  21371062.122   111284732.317        -428.524          35.439  
C13  38892115.449                       -1191.832          33.771  
C20  26429761.557   137626749.835        -830.072          37.312  
C24  22772442.566                       -1999.726          32.825  
C25  23327450.742   121472155.724        1302.971          41.953  
C26  25455151.865                       -3741.083          25.338  
E02                                                                                                                                  26800369.490   105170352.4561      -2397.549          24.023  
E21                                                                                                                                  29069687.474                        2074.423          21.350  
E27                                                                                                                                  24441302.938                        1127.948          37.150  
E36                                                                                                                                  25692556.313   100823102.220       -2020.013          32.130  
G02  25458153.087   133783474.099       -3428.305          33.983  
G05  23565996.800   123840154.4111        342.832          37.679  
G09  25250076.736   132690039.841         525.622          36.598    25250078.834    99086770.523         392.539          37.013  
G16  23314576.754   122518929.229        3074.489          37.296  
G21  21999745.193   115609468.305        2124.694          31.375  
G23  25222067.126   132542857.046        -978.556          43.249  
G25  22600119.463                       -3427.324          32.208    22600121.561    88687691.595       -2559.163          33.234  
G26  21350312.586   112196649.6971       1890.425          44.508    21350312.886    83783206.5241       1411.755          36.936  
G29  20693898.412                       -1838.343          37.651  
G31  21918950.526   115184864.300       -2421.505          44.126  
R06  23590315.964   125882307.239       -1767.791          38.478  
R07  23370252.411   125102774.3281       1447.558          37.190  
R13  21001248.039                       -3830.728          20.561  
R15  22091675.951   118051235.504        3547.802          42.343  
R17  22956383.227   122844236.159        3705.583          37.644  
R23  19618494.599   104945761.4701      -2182.195          40.769  
R24  19688663.422                        1513.078          29.851  
> 2019  8  1  8  4 12.0000000  0 27
C11  25772813.153   134205792.616        2868.117          32.853  
C12  21371146.063   111285161.937        -429.620          36.271  
C13  38892341.192   202522641.1261      -1191.947          32.701  
C20  26429919.847   137627581.176        -831.342          34.049  
C24  22772819.705   118584082.9531      -2001.733          35.923  
C25  23327199.216   121470853.637        1302.087          36.229  
C26  25455865.071                       -3741.809          25.010  
E02                                                                                                                                  26800979.268                       -2400.669          21.986  
E21                                                                                                                                  29069158.041                        2073.509          19.294  
E27                                                                                                                                  24441014.838    95911791.1771       1129.265          35.160  
E36                                                                                                                                  25693069.858   100825123.081       -2020.862          30.304  
G05  23565938.041   123839812.218         342.193          35.682  
G09  25249979.603                         523.930          33.263    25249980.802    99086378.843         391.681          33.011  
G16  23313990.360   122515855.313        3073.915          34.914  
G21  21999337.476   115607344.671        2123.634          33.811  
G23  25222254.497   132543836.609        -979.562          39.777  
G25  22600767.614   118767846.1081      -3427.512          30.548    22600776.608    88690251.026       -2559.430          32.050  
G26  21349952.236   112194759.953        1889.744          40.777    21349952.835    83781795.292        1411.232          36.549  
G29  20694250.069   108748989.9821      -1837.267          40.878  
G31  21919414.305   115187286.704       -2422.404          44.745  
R06  23590656.229   125884076.282       -1769.042          35.680  
R07  23369970.306   125101328.327        1446.001          33.939  
R13  21001949.853                       -3832.921          22.494  
R15  22091021.204   118047688.610        3546.894          36.770  
R17  22955693.104   122840531.207        3704.953          38.890  
R23  19618910.411   104947945.076       -2183.606          40.061  
R24  19688379.818                        1510.980          33.039  
> 2019  8  1  8  4 13.0000000  0 27
C11  25772260.935   134202924.749        2867.867          30.591  
C12  21371227.307   111285592.229        -430.292          35.304  
C13  38892571.433   202523833.541       -1192.415          30.438  
C20  26430081.435   137628413.585        -832.408          32.844  
C24  22773208.536   118586085.272       -2002.319          34.982  
C25  23326950.688   121469552.316        1301.321          36.360  
C26  25456588.770                       -3746.296          21.338  
E02                                                                                                                                  26801592.644                       -2397.453          19.331  
E21                                                                                                                                  29068630.706                        2072.658          19.081  
E27                                                                                                                                  24440727.037    95910662.600        1128.577          33.397  
E36                                                                                                                                  25693584.901   100827144.551       -2021.469          29.939  
G05  23565873.285   123839471.244         340.975          36.623  
G09                                                                  25249879.772    99085988.159         390.684          31.973  
G16  23313410.262   122512782.497        3072.817          33.798  
G21  21998935.454   115605222.178        2122.493          32.282  
G23  25222441.867   132544817.183        -980.575          36.499  
G25  22601424.459   118771273.996       -3427.889          29.022    22601428.357                       -2561.081          27.204  
G26  21349598.481   112192870.970        1888.983          40.120    21349593.084    83780384.744        1410.548          35.496  
G29  20694600.826   108750827.799       -1837.818          42.204  
G31  21919876.285   115189709.853       -2423.150          42.292  
R06  23590986.300   125885846.768       -1770.486          31.617  
R07  23369714.883   125099883.282        1445.045          30.955  
R13  21002695.437                       -3836.544          20.579  
R15  22090349.070                        3548.480          31.943  
R17  22955000.584   122836826.690        3704.517          37.071  
R23  19619315.730   104950129.549       -2184.473          39.068  
R24  19688098.013                        1509.402          33.985  
> 2019  8  1  8  4 14.0000000  0 27
C11  25771711.415   134200057.433        2867.316          30.295  
C12  21371310.650   111286023.203        -430.974          35.916  
C13  38892801.074   202525026.232       -1192.690          29.154  
C20  26430238.227   137629246.743        -833.158          32.829  
C24  22773589.272   118588088.419       -2003.147          33.099  
C25  23326698.862   121468251.730        1300.585          36.901  
C26  25457309.471                       -3742.685          22.994  
E02                                                                                                                                  26802203.621                       -2396.061          19.916  
E21                                                                                                                                  29068105.170                        2067.001          19.399  
E27                                                                                                                                  24440439.536    95909534.279        1128.321          33.760  
E36                                                                                                                                  25694100.544   100829166.153       -2021.603          28.176  
G05  23565813.627   123839131.177         340.066          35.146  
G09                                                                  25249780.541    99085597.921         390.238          30.183  
G16  23312823.268   122509709.557        3072.940          31.394  
G21  21998534.332   115603100.012        2122.166          33.133  
G23  25222625.040   132545798.477        -981.294          35.987  
G25  22602081.605                       -3429.873          28.625    22602081.005                       -2561.569          25.790  
G26  21349235.732   112190982.585        1888.385          37.963    21349233.933    83778974.512        1410.232          35.884  
G29  20694949.185   108752666.760       -1838.961          42.562  
G31  21920336.467   115192133.883       -2424.030          42.235  
R06  23591304.380   125887618.193       -1771.425          29.255  
R07  23369435.177   125098439.072        1444.210          28.584  
R13  21003426.630                       -3838.526          16.814  
R15  22089676.335                        3543.942          26.773  
R17  22954318.256   122833122.758        3703.932          37.377  
R23  19619736.639   104952314.950       -2185.401          38.784  
R24  19687809.013   105279532.4811       1508.567          33.408  
> 2019  8  1  8  4 15.0000000  0 28
C11  25771160.097   134197189.521        2867.912          29.340  
C12  21371390.694   111286454.486        -431.283          33.845  
C13  38893031.315   202526218.799       -1192.567          27.836  
C19  26022245.274                        1470.738          14.926  
C20  26430404.012   137630080.177        -833.434          32.397  
C24  22773978.103   118590091.931       -2003.512          33.574  
C25  23326451.234   121466951.397        1300.334          35.624  
C26  25458019.080   132566446.5901      -3741.323          24.705  
E02                                                                                                                                  26802815.497                       -2378.853          24.375  
E21                                                                                                                                  29067577.535                        2060.217          19.840  
E27                                                                                                                                  24440152.035    95908406.173        1128.106          32.897  
G02  25460765.779   133797192.3161      -3429.794          24.912  
G05  23565746.473   123838791.395         339.783          33.935  
G09  25249679.511                         525.630          24.140    25249680.710    99085208.083         389.837          27.887  
G16  23312245.268   122506636.732        3072.825          32.205  
G21  21998125.415   115600978.056        2121.956          31.830  
G23  25222810.612   132546780.108        -981.631          34.775  
G25  22602728.856   118778132.1631      -3429.039          30.526    22602731.854    88697931.9271      -2560.447          26.763  
G26  21348879.878   112189094.370        1888.215          37.668    21348874.482    83777564.614        1409.898          35.403  
G29  20695302.640   108754506.008       -1839.247          41.371  
G31  21920796.049   115194558.162       -2424.278          41.688  
R06  23591625.458                       -1772.468          25.714  
R07  23369180.353   125096995.378        1443.694          28.836  
R13  21004168.317                       -3837.571          15.644  
R15  22089033.880                        3537.763          25.370  
R17  22953613.144   122829418.844        3703.914          35.004  
R23  19620132.965   104954500.722       -2185.773          36.925  
R24  19687522.712   105278024.242        1508.239          32.435  
> 2019  8  1  8  4 16.0000000  0 28
C11  25770611.777   134194320.317        2869.204          28.737  
C12  21371474.036   111286884.175        -429.689          32.924  
C13  38893258.258                       -1190.363          26.766  
C19  26021961.971                        1474.765          17.801  
C20  26430565.001   137630912.352        -832.175          30.994  
C24  22774361.538   118592093.815       -2001.883          33.265  
C25  23326201.207   121465649.768        1301.629          35.043  
C26  25458734.985                       -3740.639          21.973  
E02                                                                                                                                  26803430.371                       -2400.723          21.290  
E21                                                                                                                                  29067052.598                        2061.451          17.402  
E27                                                                                                                                  24439864.234    95907276.729        1129.444          31.662  
E36                                                                                                                                  25695131.531   100833208.3141      -2020.360          29.764  
G02  25461416.328   133800620.376       -3428.060          23.857  
G05  23565681.418   123838450.614         340.780          33.919  
G09  25249571.585   132687424.0361        523.070          24.094    25249581.179    99084817.246         390.837          26.419  
G16  23311655.577   122503562.219        3074.514          32.020  
G21  21997722.793   115598854.487        2123.569          30.970  
G23  25223000.980   132547760.605        -980.497          33.106  
G25  22603384.802   118781559.306       -3427.143          28.764    22603386.601                       -2558.911          24.014  
G26  21348515.031   112187204.788        1889.581          37.806    21348515.630    83776153.459        1411.155          34.655  
G29  20695650.699   108756343.666       -1837.658          40.833  
G31  21921260.727   115196981.130       -2422.969          42.016  
R06  23591982.211                       -1768.999          26.380  
R07  23368909.640   125095550.584        1444.794          29.815  
R15  22088364.743                        3543.710          21.903  
R17  22952926.320   122825713.308        3705.536          35.239  
R23  19620545.479   104956685.009       -2184.286          35.520  
R24  19687237.309   105276514.874        1509.369          31.799  
> 2019  8  1  8  4 17.0000000  0 27
C11  25770058.660   134191449.844        2870.474          28.723  
C12  21371559.777   111287313.010        -428.835          34.228  
C13  38893489.697                       -1189.497          28.230  
C19  26021675.669                        1477.089          17.209  
C20  26430721.792   137631743.731        -831.379          31.179  
C24  22774747.670   118594095.112       -2001.297          34.754  
C25  23325949.681   121464347.264        1302.504          34.302  
C26  25459454.486                       -3736.451          22.147  
E02                                                                                                                                  26804038.950                       -2399.619          19.203  
E27                                                                                                                                  24439577.333    95906146.649        1130.080          32.168  
E36                                                                                                                                  25695644.775   100835227.938       -2019.624          29.636  
G02  25462059.683                       -3424.587          25.249  
G05  23565618.762   123838108.984         341.631          33.314  
G09  25249480.448   132686899.900         524.136          25.403    25249481.048    99084425.889         391.357          26.682  
G16  23311072.480   122500486.463        3075.755          31.316  
G21  21997316.275   115596729.905        2124.582          30.817  
G23  25223187.151   132548740.062        -979.457          34.531  
G25  22604042.847   118784985.153       -3425.847          28.917    22604038.949                       -2558.820          23.147  
G26  21348158.278   112185314.274        1890.514          39.042    21348155.579    83774741.714        1411.746          34.348  
G29  20696003.255   108758180.483       -1836.817          39.013  
G31  21921718.510   115199403.365       -2422.234          41.991  
R06  23592307.785                       -1769.098          27.209  
R07  23368637.729                        1443.733          30.841  
R15  22087696.206                        3551.803          26.391  
R17  22952235.898   122822006.539        3706.769          35.834  
R23  19620959.792   104958868.632       -2183.623          36.674  
R24  19686958.202   105275004.846        1510.028          32.829  
> 2019  8  1  8  4 18.0000000  0 28
C11  25769505.543                        2872.958          25.128  
C12  21371641.620   111287741.493        -428.483          32.600  
C13  38893718.439                       -1189.623          27.076  
C19  26021406.755                        1470.307          16.894  
C20  26430879.783   137632574.917        -831.186          30.487  
C24  22775132.904   118596095.826       -2000.715          39.595  
C25  23325704.751   121463044.368        1302.896          33.863  
C26  25460156.600   132577663.8521      -3738.134          30.262  
E02                                                                                                                                  26804649.028                       -2395.384          25.364  
E27                                                                                                                                  24439287.733    95905016.155        1130.494          31.836  
E36                                                                                                                                  25696158.020   100837247.023       -2019.085          28.419  
G02  25462711.731                       -3424.689          25.147  
G05  23565551.009   123837767.340         341.643          34.019  
G09  25249381.517   132686375.770         524.130          25.315    25249383.016                         391.097          28.654  
G16  23310490.283   122497410.090        3076.373          29.582  
G21  21996912.454   115594605.241        2124.664          39.750  
G23  25223371.523   132549719.271        -979.208          32.658  
G25  22604687.401   118788410.973       -3425.820          30.524    22604687.700                       -2558.346          24.379  
G26  21347795.529   112183423.257        1891.017          37.644    21347795.229    83773329.582        1412.132          35.065  
G29  20696346.817   108760016.781       -1836.298          36.984  
G31  21922180.490   115201825.078       -2421.714          39.435  
R06  23592636.658   125894699.6951      -1770.295          27.695  
R07  23368367.616   125092659.8631       1445.369          30.115  
R13  21006304.338                       -3830.661          29.671  
R15  22087042.059                        3552.261          26.310  
R17  22951534.983   122818299.301        3707.238          32.620  
R23  19621355.518   104961052.032       -2183.400          36.820  
R24  19686679.395   105273494.569        1510.277          33.478  
> 2019  8  1  8  4 19.0000000  0 28
C11  25768951.526                        2869.931          22.815  
C12  21371720.466   111288170.039        -428.546          32.467  
C13  38893941.784                       -1187.440          26.092  
C19  26021113.858                        1470.855          14.224  
C20  26431038.673   137633406.219        -831.302          30.235  
C24  22775514.839   118598096.883       -2001.056          43.051  
C25  23325448.428   121461741.764        1302.604          33.815  
C26  25460874.303   132581401.717       -3737.865          31.058  
E02                                                                                                                                  26805257.906   105189506.4891      -2395.648          26.004  
E27                                                                                                                                  24438999.633    95903885.684        1130.471          32.134  
E36                                                                                                                                  25696674.862   100839266.128       -2019.105          27.995  
G02  25463362.881                       -3423.837          24.002  
G05  23565483.555   123837425.974         341.366          32.942  
G09  25249282.885                         523.700          24.516    25249281.986    99083642.9691        391.420          28.535  
G16  23309897.893                        3077.448          29.118  
G21  21996504.737   115592480.485        2124.756          40.598  
G23  25223558.894   132550698.805        -979.534          31.640  
G25  22605334.952   118791836.977       -3426.004          30.559    22605339.749    88708166.2421      -2558.211          24.700  
G26  21347439.675   112181532.358        1890.899          37.462    21347436.078    83771917.515        1412.067          34.873  
G29  20696696.975   108761853.259       -1836.478          36.670  
G31  21922640.971   115204247.095       -2422.017          42.374  
R06  23592975.423   125896470.411       -1770.716          27.801  
R07  23368110.394   125091214.857        1445.006          29.324  
R13  21006969.877   112176046.5711      -3831.058          30.965  
R15  22086372.323                        3545.628          24.919  
R17  22950857.152   122814591.918        3707.383          30.127  
R23  19621771.630   104963235.705       -2183.674          36.333  
R24  19686389.196   105271984.655        1509.915          35.675  
> 2019  8  1  8  4 20.0000000  0 28
C11  25768405.004                        2867.706          22.601  
C12  21371802.309   111288598.795        -428.756          32.893  
C13  38894170.826                       -1185.349          26.716  
C19  26020815.564                        1479.067          13.337  
C20  26431197.862   137634237.972        -831.753          30.043  
C24  22775900.672   118600098.162       -2001.280          42.053  
C25  23325199.301   121460439.313        1302.451          32.715  
C26  25461592.606   132585139.450       -3737.733          31.460  
E02                                                                                                                                  26805868.883   105191902.257       -2395.768          25.784  
E27                                                                                                                                  24438711.232    95902755.227        1130.457          32.110  
E36                                                                                                                                  25697188.107   100841285.104       -2018.976          27.356  
G02  25464019.126   133814327.5541      -3426.028          23.875  
G05  23565419.400   123837084.985         340.989          33.367  
G09  25249180.356   132685327.5521        523.603          25.426    25249183.654    99083251.993         390.976          29.143  
G16  23309316.296   122491256.9121       3076.535          29.538  
G21  21996103.614   115590356.073        2124.412          41.434  
G23  25223748.362   132551678.593        -979.789          30.870  
G25                                                                  22605992.397                       -2558.016          24.214  
G26  21347074.828   112179641.656        1890.702          37.197    21347076.626    83770505.643        1411.871          35.166  
G29  20697048.332   108763689.892       -1836.634          36.800  
G31  21923101.453   115206669.428       -2422.333          44.899  
R06  23593310.891   125898241.708       -1771.297          28.225  
R07  23367827.690   125089770.370        1444.487          29.163  
R13  21007681.585   112179877.924       -3831.353          31.592  
R15  22085699.289                        3545.466          24.099  
R17  22950176.324                        3707.697          29.171  
R23  19622187.442   104965419.727       -2184.022          36.300  
R24  19686116.085   105270475.189        1509.465          35.746  
> 2019  8  1  8  4 21.0000000  0 28
C11  25767853.686   134179961.9211       2871.816          28.177  
C12  21371884.752   111289027.450        -428.656          32.723  
C13  38894399.268   202533353.8711      -1187.537          26.506  
C19  26020531.061                        1486.255          15.510  
C20  26431360.350   137635069.700        -831.728          30.835  
C24  22776284.107   118602099.427       -2001.264          42.149  
C25  23324948.674   121459136.967        1302.346          32.770  
C26  25462308.211   132588876.246       -3736.797          31.735  
E02                                                                                                                                  26806478.661   105194297.572       -2395.315          26.424  
E27                                                                                                                                  24438424.331    95901624.667        1130.560          32.538  
E36                                                                                                                                  25697701.951   100843303.953       -2018.849          27.744  
G02  25464669.976                       -3425.476          23.208  
G05  23565357.043   123836744.181         340.804          33.035  
G09  25249082.624   132684804.091         523.461          25.653    25249083.823    99082861.067         390.927          29.074  
G16  23308733.200   122488180.063        3076.849          29.577  
G21  21995697.396   115588231.556        2124.517          41.645  
G23  25223931.835   132552658.382        -979.789          30.600  
G25  22606641.748   118798688.1861      -3425.468          29.172    22606647.743                       -2557.794          24.882  
G26  21346719.574   112177750.793        1890.863          36.995    21346716.276    83769093.697        1411.947          35.173  
G29  20697397.890   108765526.490       -1836.597          36.994  
G31  21923563.433   115209091.711       -2422.283          44.378  
R06  23593630.470   125900013.327       -1771.619          28.138  
R07  23367556.078   125088326.141        1444.229          28.840  
R13  21008398.688   112183709.294       -3831.370          31.433  
R15  22085053.236                        3550.821          23.998  
R17  22949466.415   122807176.8811       3707.635          36.427  
R23  19622598.458   104967603.827       -2184.100          36.343  
R24  19685835.779   105268965.870        1509.319          35.829  
> 2019  8  1  8  4 22.0000000  0 27
C11  25767300.869   134177090.042        2871.879          28.404  
C12  21371965.996   111289456.155        -428.705          32.572  
C13  38894628.909   202534541.619       -1187.749          26.504  
C20  26431521.339   137635901.681        -831.982          31.012  
C24  22776668.441   118604100.871       -2001.444          42.156  
C25  23324697.148   121457834.659        1302.307          32.700  
C26  25463027.113   132592613.322       -3737.076          31.816  
E02                                                                                                                                  26807088.439   105196692.794       -2395.221          26.167  
E27                                                                                                                                  24438135.631    95900493.946        1130.721          32.711  
E36                                                                                                                                  25698216.995   100845322.538       -2018.585          27.526  
G02  25465324.123                       -3425.318          23.447  
G05  23565287.491   123836403.670         340.510          32.939  
G09  25248982.193   132684280.715         523.376          25.583    25248984.592    99082470.256         390.811          28.980  
G16  23308147.405   122485102.974        3077.089          29.682  
G21  21995296.573   115586107.144        2124.411          41.627  
G23  25224116.508   132553638.406        -980.024          30.393  
G25  22607297.394   118802113.532       -3425.346          29.320    22607297.094    88715840.2251      -2557.906          24.544  
G26  21346358.923   112175860.002        1890.791          37.240    21346356.225    83767681.698        1411.999          35.445  
G29  20697745.349   108767363.108       -1836.618          36.982  
G31  21924022.715   115211514.181       -2422.470          44.825  
R06  23593973.132   125901785.304       -1771.977          28.330  
R07  23367288.962   125086882.328        1443.813          28.664  
R13  21009119.689   112187540.824       -3831.530          31.262  
R15  22084401.487                        3549.873          22.802  
R17  22948777.492   122803469.101        3707.780          37.353  
R23  19623005.276   104969788.170       -2184.343          36.182  
R24  19685547.679   105267456.891        1508.979          35.752  
> 2019  8  1  8  4 23.0000000  0 27
C11  25766750.450   134174218.164        2871.879          29.056  
C12  21372049.938   111289885.454        -429.299          32.736  
C13  38894855.552   202535729.515       -1187.895          26.427  
C20  26431682.027   137636734.264        -832.583          30.933  
C24  22777053.374   118606102.858       -2001.987          42.236  
C25  23324448.320   121456532.961        1301.699          33.019  
C26  25463744.217   132596350.657       -3737.335          31.985  
E02                                                                                                                                  26807699.416   105199088.255       -2395.461          26.355  
E27                                                                                                                                  24437847.830    95899363.675        1130.270          32.587  
E36                                                                                                                                  25698730.539   100847341.482       -2018.944          27.901  
G02  25465974.073   133824603.9891      -3425.525          23.104  
G05  23565226.033   123836063.928         339.742          33.084  
G09  25248882.063                         520.635          25.480    25248885.061    99082080.021         390.236          28.722  
G16  23307561.611   122482026.179        3076.795          29.287  
G21  21994892.453   115583983.230        2123.914          41.758  
G23  25224302.679   132554619.050        -980.644          30.896  
G25  22607947.044   118805539.297       -3425.765          29.086    22607951.241                       -2558.596          24.641  
G26  21345997.973   112173969.734        1890.268          37.437    21345996.774    83766270.168        1411.530          35.263  
G29  20698097.006   108769200.188       -1837.080          36.859  
G31  21924485.594   115213937.240       -2423.059          44.921  
R06  23594307.701   125903558.233       -1772.929          28.312  
R07  23367007.757   125085439.319        1443.009          28.829  
R13  21009833.195   112191372.915       -3832.091          31.248  
R15  22083739.545                        3547.497          22.177  
R17  22948078.676   122799761.652        3707.449          36.359  
R23  19623403.101   104971973.188       -2185.018          36.164  
R24  19685261.977   105265948.690        1508.201          35.755  
> 2019  8  1  8  4 24.0000000  0 27
C11  25766197.033   134171348.147        2870.017          28.821  
C12  21372134.479   111290316.643        -431.188          32.905  
C13  38895084.893   202536919.010       -1189.495          26.586  
C20  26431839.119   137637568.926        -834.662          30.811  
C24  22777438.008   118608106.934       -2004.077          42.333  
C25  23324195.296   121455233.334        1299.626          32.808  
C26  25464464.018   132600089.585       -3738.928          31.977  
E02                                                                                                                                  26808310.393   105201484.956       -2396.701          25.896  
E27                                                                                                                                  24437559.430    95898234.757        1128.918          32.658  
E36                                                                                                                                  25699247.081   100849361.727       -2020.245          27.892  
G02  25466629.120                       -3428.410          23.371  
G05  23565163.377   123835726.461         337.467          33.245  
G09  25248784.630   132683238.2321        520.472          25.637    25248785.230    99081691.424         388.596          28.974  
G16  23306975.517   122478951.163        3075.016          29.095  
G21  21994486.834   115581861.315        2121.916          41.717  
G23  25224492.747   132555601.876        -982.826          31.018  
G25                                                                  22608602.990    88720958.1211      -2559.689          24.599  
G26  21345639.421   112172081.433        1888.301          37.720    21345637.623    83764860.057        1410.111          35.399  
G29  20698446.264   108771039.327       -1839.139          36.953  
G31  21924945.776   115216362.416       -2425.176          44.932  
R06  23594636.273   125905333.544       -1775.311          28.075  
R07  23366740.042   125083998.751        1440.568          28.804  
R13  21010558.093   112195207.187       -3834.272          31.042  
R15  22083067.710                        3543.837          23.075  
R17  22947383.757   122796056.139        3705.513          37.330  
R23  19623807.221   104974160.390       -2187.202          36.252  
R24  19684987.667   105264442.781        1505.909          35.837  
> 2019  8  1  8  4 25.0000000  0 27
C11  25765646.914   134168479.323        2868.824          29.546  
C12  21372214.824   111290749.428        -432.786          32.697  
C13  38895313.035   202538109.773       -1190.763          26.609  
C20  26432001.906   137638405.361        -836.435          30.866  
C24  22777822.342   118610112.607       -2005.672          42.234  
C25  23323949.766   121453935.348        1297.987          33.056  
C26  25465182.021   132603829.791       -3740.206          31.921  
E02                                                                                                                                  26808921.670   105203882.605       -2397.649          26.220  
E27                                                                                                                                  24437272.528    95897106.940        1127.817          32.317  
E36                                                                                                                                  25699761.525   100851382.989       -2021.262          28.205  
G02  25467276.072   133831459.8221      -3428.483          23.485  
G05  23565102.819   123835390.737         335.724          33.385  
G09  25248685.699   132682719.137         519.095          25.074    25248686.898    99081304.091         387.333          29.015  
G16  23306386.724   122475877.465        3073.698          29.229  
G21  21994083.013   115579740.992        2120.322          41.785  
G23  25224679.818   132556586.289        -984.412          30.758  
G25  22609249.942   118812395.4921      -3428.503          28.859    22609253.539    88723518.650       -2560.529          24.644  
G26  21345282.968   112170194.664        1886.769          37.597    21345278.771    83763451.128        1408.929          35.282  
G29  20698795.822   108772879.975       -1840.647          36.912  
G31  21925409.855   115218789.267       -2426.851          45.109  
R06  23594963.647   125907110.752       -1777.207          28.005  
R07  23366454.640   125082560.089        1438.662          28.879  
R13  21011276.996   112199043.098       -3835.912          31.208  
R15  22082417.161                        3541.256          23.049  
R17  22946689.737   122792351.975        3704.164          37.109  
R23  19624227.530   104976349.394       -2189.003          35.956  
R24  19684702.864   105262938.665        1504.116          35.792  
> 2019  8  1  8  4 26.0000000  0 27
C11  25765096.495   134165611.334        2867.989          29.254  
C12  21372300.864   111291183.390        -433.961          33.032  
C13  38895543.276   202539301.306       -1191.533          26.659  
C20  26432163.194   137639243.022        -837.661          30.820  
C24  22778208.774   118612119.542       -2006.935          42.255  
C25  23323698.539   121452638.628        1296.719          33.186  
C26  25465899.724   132607570.812       -3741.021          32.012  
E02                                                                                                                                  26809532.647   105206280.925       -2398.320          26.062  
E27                                                                                                                                  24436986.826    95895979.901        1127.039          32.850  
E36                                                                                                                                  25700276.569   100853404.906       -2021.917          28.471  
G02  25467929.319                       -3428.836          22.699  
G05  23565032.368   123835056.459         334.278          33.370  
G09  25248583.769   132682201.809         517.327          25.870    25248588.266    99080917.800         386.291          29.235  
G16  23305806.926   122472804.699        3072.766          29.214  
G21  21993682.490   115577621.897        2119.096          41.755  
G23  25224867.188   132557572.024        -985.736          30.686  
G25  22609901.091   118815825.605       -3430.113          28.612    22609906.487    88726080.114       -2561.464          24.357  
G26  21344920.219   112168309.087        1885.577          37.720    21344919.919    83762043.061        1408.068          35.358  
G29  20699147.478   108774721.787       -1841.813          37.016  
G31  21925870.336   115221217.372       -2428.104          44.985  
R06  23595294.917   125908889.575       -1778.823          27.822  
R07  23366181.529   125081122.955        1437.135          28.171  
R13  21011989.902   112202880.339       -3837.240          31.092  
R15  22081746.225                        3538.521          23.172  
R17  22946008.009   122788648.845        3703.130          37.239  
R23  19624631.950   104978539.723       -2190.330          35.937  
R24  19684428.254   105261436.017        1502.648          35.885  
> 2019  8  1  8  4 27.0000000  0 26
C11  25764544.277   134162742.769        2868.566          29.377  
C12  21372383.007   111291617.458        -434.068          32.852  
C13  38895773.816   202540492.722       -1191.417          26.914  
C20  26432325.082   137640080.912        -837.889          31.047  
C24  22778592.808   118614126.653       -2007.111          42.225  
C25  23323452.410   121451342.069        1296.560          32.476  
C26  25466617.727   132611311.711       -3740.899          32.083  
E02                                                                                                                                  26810142.724   105208679.157       -2398.232          26.699  
E27                                                                                                                                  24436697.826    95894852.887        1127.014          32.813  
E36                                                                                                                                  25700793.111   100855426.761       -2021.855          28.376  
G05  23564973.009   123834722.551         333.908          33.733  
G09  25248490.534   132681684.877         516.932          25.584    25248490.534    99080531.759         386.042          29.207  
G16  23305218.733   122469731.861        3072.838          29.389  
G21  21993277.471   115575502.932        2118.964          41.858  
G23  25225056.657   132558558.027        -986.003          30.541  
G25                                                                  22610559.136    88728641.573       -2561.458          23.960  
G26  21344561.667   112166423.583        1885.504          37.612    21344560.768    83760635.006        1408.054          35.234  
G29  20699499.135   108776563.757       -1841.969          36.948  
G31  21926332.616   115223645.696       -2428.324          45.050  
R06  23595627.687   125910668.861       -1779.286          27.940  
R07  23365919.511   125079686.228        1436.727          28.042  
R13  21012705.806   112206717.776       -3837.437          30.883  
R15  22081084.283                        3544.288          23.064  
R17  22945310.092   122784945.685        3703.161          37.200  
R23  19625046.563   104980730.351       -2190.628          36.066  
R24  19684149.147   105259933.668        1502.349          35.883  
> 2019  8  1  8  4 28.0000000  0 26
C11  25763994.758   134159873.657        2869.111          29.431  
C12  21372468.148   111292050.879        -433.421          33.031  
C13  38896005.256   202541682.944       -1190.222          26.736  
C20  26432483.073   137640918.259        -837.348          31.026  
C24  22778980.440   118616133.174       -2006.521          42.203  
C25  23323202.683   121450044.857        1297.212          32.796  
C26  25467337.829   132615051.563       -3739.852          32.133  
E02                                                                                                                                  26810754.901   105211076.701       -2397.545          26.455  
E27                                                                                                                                  24436411.524    95893725.285        1127.602          32.723  
E36                                                                                                                                  25701307.555   100857447.956       -2021.195          28.309  
G05  23564909.453   123834388.225         334.326          33.626  
G09  25248392.502   132681167.357         517.521          25.459    25248391.902    99080145.308         386.451          29.145  
G16  23304632.339   122466658.061        3073.800          29.070  
G21  21992873.950   115573383.233        2119.699          41.897  
G23  25225241.329   132559543.409        -985.382          30.802  
G25                                                                  22611212.983                       -2560.436          24.329  
G26  21344204.315   112164537.406        1886.177          37.628    21344201.916    83759226.533        1408.473          35.207  
G29  20699847.794   108778404.993       -1841.236          37.079  
G31  21926796.095   115226073.442       -2427.746          45.014  
R06  23595966.153   125912447.843       -1778.982          27.460  
R07  23365652.395   125078249.233        1436.995          27.887  
R13  21013425.009   112210554.545       -3836.770          31.074  
R15  22080420.543                        3547.707          23.159  
R17  22944613.674   122781241.590        3704.095          37.022  
R23  19625449.184   104982920.466       -2190.115          35.868  
R24  19683860.747   105258430.913        1502.755          35.612  
> 2019  8  1  8  4 29.0000000  0 28
C11  25763441.341   134157004.800        2868.857          29.156  
C12  21372553.289   111292484.789        -433.909          33.083  
C13  38896228.901   202542873.538       -1190.594          26.925  
C20  26432644.061   137641756.369        -838.110          30.672  
C24  22779364.474   118618140.256       -2007.082          42.261  
C25  23322955.054   121448748.326        1296.531          32.923  
C26  25468053.134   132618791.599       -3740.036          32.163  
E02                                                                                                                                  26811366.777   105213474.412       -2397.710          26.064  
E21                                                                                                                                  29060178.957                        2071.822          18.069  
E27                                                                                                                                  24436123.424    95892597.998        1127.288          32.563  
E36                                                                                                                                  25701821.699   100859469.402       -2021.445          28.303  
G02  25469887.564                       -3429.460          23.377  
G05  23564844.697   123834054.626         333.599          33.551  
G09  25248292.071   132680650.589         516.768          25.195    25248293.870    99079759.398         385.909          28.977  
G16  23304052.240   122463584.568        3073.493          28.903  
G21  21992468.631   115571264.120        2119.113          41.918  
G23  25225428.399   132560529.528        -986.119          30.507  
G25                                                                  22611864.132    88733763.3551      -2561.012          24.085  
G26  21343843.665   112162651.738        1885.668          37.685    21343843.065    83757818.397        1408.136          35.323  
G29  20700199.750   108780246.754       -1841.761          37.130  
G31  21927255.377   115228501.832       -2428.390          45.016  
R06  23596292.027   125914227.688       -1779.844          27.741  
R07  23365388.878   125076813.098        1436.136          27.433  
R13  21014152.905   112214392.001       -3837.456          31.354  
R15  22079750.807                        3542.332          22.730  
R17  22943923.252   122777537.887        3703.703          37.132  
R23  19625861.399   104985111.244       -2190.778          36.021  
R24  19683587.336   105256928.933        1501.980          35.901  
> 2019  8  1  8  4 30.0000000  0 28
C11  25762892.720   134154138.036        2866.763          29.107  
C12  21372635.133   111292921.073        -436.284          33.254  
C13  38896456.444   202544066.045       -1192.507          27.029  
C20  26432808.048   137642596.886        -840.517          30.828  
C24  22779750.007   118620149.739       -2009.483          42.283  
C25  23322703.828   121447454.174        1294.152          32.849  
C26  25468770.837   132622533.729       -3742.129          31.848  
E02                                                                                                                                  26811975.655   105215873.816       -2399.404          26.178  
E21                                                                                                                                  29059648.024                        2069.909          17.937  
E27                                                                                                                                  24435835.923    95891472.393        1125.605          32.607  
E36                                                                                                                                  25702337.942   100861492.489       -2023.088          28.241  
G02  25470545.908                       -3431.152          23.425  
G05  23564783.840   123833723.665         330.961          33.614  
G09  25248191.341   132680136.341         514.248          25.099    25248197.037    99079375.402         383.996          29.165  
G16  23303467.045   122460513.207        3071.361          29.138  
G21  21992069.307   115569147.414        2116.706          42.064  
G23  25225615.470   132561518.114        -988.587          30.716  
G25  22612510.485   118829546.3921      -3431.903          27.942    22612516.481    88736326.212       -2562.857          24.211  
G26  21343487.211   112160768.426        1883.312          37.678    21343484.213    83756412.023        1406.373          35.497  
G29  20700550.807   108782090.874       -1844.119          37.175  
G31  21927718.856   115230932.673       -2430.841          45.005  
R06  23596628.394   125916010.335       -1782.648          27.559  
R07  23365115.467   125075379.723        1433.375          27.653  
R13  21014867.610   112218231.931       -3839.930          31.409  
R15  22079108.951                        3540.904          23.239  
R17  22943233.130   122773836.400        3701.487          37.122  
R23  19626276.611   104987304.587       -2193.343          36.064  
R24  19683313.326   105255429.628        1499.305          35.956  
> 2019  8  1  8  4 31.0000000  0 28
C11  25762343.501   134151272.480        2865.557          29.149  
C12  21372722.372   111293358.832        -437.759          33.258  
C13  38896684.885   202545259.647       -1193.603          26.791  
C20  26432968.437   137643438.974        -842.088          30.982  
C24  22780136.140   118622160.892       -2011.153          42.407  
C25  23322455.300   121446161.622        1292.552          32.735  
C26  25469489.439   132626277.022       -3743.293          31.944  
E02                                                                                                                                  26812588.131   105218273.945       -2400.129          25.926  
E21                                                                                                                                  29059117.991                        2072.673          18.079  
E27                                                                                                                                  24435549.621    95890347.813        1124.580          32.642  
E36                                                                                                                                  25702853.285   100863516.459       -2023.970          27.809  
G02  25471198.856                       -3432.986          23.144  
G05  23564716.386   123833394.462         329.203          33.341  
G09  25248090.311                         511.792          25.528    25248098.405    99078992.698         382.704          29.089  
G16  23302880.651   122457443.110        3070.097          28.853  
G21  21991665.187   115567032.170        2115.244          42.073  
G23  25225805.238   132562508.338        -990.223          30.832  
G25                                                                  22613172.426    88738890.023       -2563.812          24.273  
G26  21343128.659   112158886.620        1881.806          37.710    21343126.561    83755006.762        1405.261          35.495  
G29  20700899.466   108783936.509       -1845.635          37.273  
G31  21928182.635   115233365.111       -2432.437          45.035  
R06  23596959.665   125917794.849       -1784.514          27.916  
R07  23364849.251   125073948.176        1431.546          27.911  
R13  21015590.110   112222073.460       -3841.529          31.411  
R15  22078412.533                        3539.078          23.554  
R17  22942532.815   122770136.285        3700.114          36.873  
R23  19626688.526   104989499.664       -2195.077          35.902  
R24  19683029.422   105253932.113        1497.515          35.971  
> 2019  8  1  8  4 32.0000000  0 27
C11  25761793.681   134148407.461        2865.019          29.277  
C12  21372803.316   111293797.532        -438.700          33.294  
C13  38896917.524   202546453.926       -1194.279          26.937  
C20  26433131.224   137644282.211        -843.237          30.727  
C24  22780521.973   118624172.955       -2012.063          42.325  
C25  23322207.672   121444870.045        1291.577          32.797  
C26  25470211.939   132630020.912       -3743.890          32.231  
E02                                                                                                                                  26813202.406   105220674.630       -2400.685          26.347  
E21                                                                                                                                  29058589.157                        2073.567          17.361  
E27                                                                                                                                  24435263.919    95889223.855        1123.958          32.592  
E36                                                                                                                                  25703370.127   100865540.928       -2024.469          27.835  
G05  23564660.325   123833066.390         328.072          33.285  
G09  25247997.375   132679112.4301        511.425          25.822    25248001.572    99078610.805         381.893          29.041  
G16  23302295.457   122454373.773        3069.337          29.194  
G21  21991263.165   115564917.894        2114.276          42.004  
G23  25225994.407   132563499.572        -991.234          30.610  
G25                                                                  22613823.875    88741454.316       -2564.293          24.416  
G26  21342767.110   112157005.693        1880.926          37.466    21342768.609    83753602.189        1404.573          35.482  
G29  20701251.122   108785783.040       -1846.532          37.062  
G31  21928647.313   115235798.579       -2433.468          44.975  
R06  23597297.531   125919580.605       -1785.755          27.418  
R07  23364590.830   125072517.970        1430.207          27.879  
R13  21016309.911   112225916.059       -3842.600          31.465  
R15  22077753.289   117976797.1261       3538.957          24.293  
R17  22941843.592   122766436.920        3699.366          36.983  
R23  19627090.548   104991695.858       -2196.194          35.900  
R24  19682750.016   105252435.795        1496.318          35.942  
> 2019  8  1  8  4 33.0000000  0 27
C11  25761240.864   134145542.618        2864.842          29.467  
C12  21372889.656   111294236.663        -439.130          33.177  
C13  38897148.365   202547648.230       -1194.304          26.966  
C20  26433293.712   137645125.929        -843.718          30.954  
C24  22780909.604   118626185.530       -2012.576          42.395  
C25  23321959.743   121443578.958        1291.087          33.055  
C26  25470929.642   132633764.907       -3743.996          32.156  
E02                                                                                                                                  26813811.884   105223075.611       -2400.981          25.873  
E21                                                                                                                                  29058063.621                        2068.310          17.767  
E27                                                                                                                                  24434977.617    95888100.176        1123.679          32.579  
E36                                                                                                                                  25703885.770   100867565.620       -2024.691          28.028  
G05  23564592.872   123832739.017         327.373          33.357  
G09  25247902.941   132678601.638         510.792          25.989    25247903.840    99078229.349         381.457          28.598  
G16  23301712.360   122451304.533        3069.240          29.024  
G21  21990862.043   115562804.062        2113.832          42.123  
G23  25226181.178   132564491.339        -991.767          30.639  
G25  22614470.228   118839847.9581      -3434.330          28.340    22614478.023                       -2565.087          24.299  
G26  21342410.057   112155125.186        1880.507          37.416    21342410.956    83752197.930        1404.259          35.215  
G29  20701601.579   108787629.962       -1846.922          37.191  
G31  21929109.893   115238232.557       -2433.978          45.007  
R06  23597650.087                       -1787.348          27.687  
R07  23364316.520   125071088.477        1429.493          27.663  
R13  21017029.413   112229759.175       -3843.115          31.461  
R15  22077098.243                        3537.953          23.827  
R17  22941161.864   122762737.824        3699.095          37.066  
R23  19627504.861   104993892.644       -2196.785          35.960  
R24  19682465.513   105250940.153        1495.642          35.864  
> 2019  8  1  8  4 34.0000000  0 26
C11  25760691.644   134142678.401        2864.217          29.193  
C12  21372972.999   111294676.757        -440.094          33.395  
C13  38897373.808   202548843.157       -1194.927          27.295  
C20  26433454.700   137645970.737        -844.808          30.866  
C24  22781294.238   118628199.146       -2013.616          42.404  
C25  23321712.115   121442288.885        1290.073          32.981  
C26  25471648.844   132637509.468       -3744.561          32.076  
E02                                                                                                                                  26814422.861   105225476.927       -2401.316          25.960  
E27                                                                                                                                  24434691.015    95886977.036        1123.140          32.761  
E36                                                                                                                                  25704402.013   100869590.832       -2025.213          28.179  
G05  23564533.513   123832412.823         326.194          33.385  
G09  25247807.607   132678092.031         509.607          25.073    25247806.707    99077848.812         380.537          28.597  
G16  23301129.564   122448236.047        3068.486          29.278  
G21  21990461.220   115560691.220        2112.842          42.204  
G23  25226369.448   132565484.202        -992.863          30.926  
G25  22615125.874                       -3436.092          27.918    22615128.872                       -2565.650          24.134  
G26  21342052.704   112153245.616        1879.570          37.513    21342053.004    83750794.331        1403.599          35.422  
G29  20701955.035   108789477.851       -1847.888          37.185  
G31  21929570.374   115240667.592       -2435.035          45.020  
R06  23597972.364   125923155.1381      -1787.830          27.650  
R07  23364053.902   125069660.259        1428.218          27.871  
R13  21017749.815   112233603.292       -3844.117          31.412  
R15  22076450.991                        3537.970          24.010  
R17  22940470.543   122759039.489        3698.335          36.995  
R23  19627916.776   104996090.557       -2197.914          35.941  
R24  19682183.408   105249445.747        1494.406          35.805  
> 2019  8  1  8  4 35.0000000  0 26
C11  25760140.626   134139814.830        2863.571          29.442  
C12  21373056.341   111295117.725        -440.968          33.527  
C13  38897604.948   202550038.614       -1195.457          27.135  
C20  26433617.487   137646816.570        -845.833          30.924  
C24  22781683.968   118630213.669       -2014.523          42.418  
C25  23321464.786   121440999.753        1289.132          32.787  
C26  25472367.147   132641254.739       -3745.271          32.059  
E02                                                                                                                                  26815037.436   105227878.707       -2401.781          25.635  
E27                                                                                                                                  24434405.313    95885854.560        1122.476          32.575  
E36                                                                                                                                  25704917.956   100871616.587       -2025.755          28.498  
G05  23564466.060   123832087.736         325.087          33.169  
G09  25247712.572                         508.160          25.334    25247709.574    99077468.996         379.816          29.063  
G16  23300546.767   122445168.207        3067.840          29.158  
G21  21990056.201   115558579.231        2111.988          42.058  
G23  25226560.116   132566478.069        -993.867          30.727  
G25  22615779.122   118846719.3671      -3435.820          27.942    22615785.418                       -2565.942          23.768  
G26  21341694.452   112151366.921        1878.695          37.400    21341695.652    83749391.430        1402.901          35.265  
G29  20702306.691   108791326.629       -1848.778          37.012  
G31  21930034.753   115243103.623       -2436.031          44.970  
R06  23598308.431   125924944.394       -1789.255          27.734  
R07  23363787.087   125068233.313        1426.946          27.465  
R13  21018461.522   112237448.488       -3845.196          31.488  
R15  22075772.561   117966183.4961       3536.961          23.824  
R17  22939775.924   122755341.872        3697.617          36.895  
R23  19628321.496   104998289.546       -2198.989          36.077  
R24  19681901.603   105247952.433        1493.314          35.619  
> 2019  8  1  8  4 36.0000000  0 26
C11  25759589.907   134136951.790        2863.040          29.600  
C12  21373140.882   111295559.493        -441.768          33.547  
C13  38897836.088   202551234.663       -1196.049          27.236  
C20  26433779.975   137647663.366        -846.796          30.948  
C24  22782070.401   118632229.133       -2015.464          42.345  
C25  23321217.157   121439711.619        1288.134          32.815  
C26  25473087.249   132645000.459       -3745.720          32.004  
E02                                                                                                                                  26815647.514   105230280.914       -2402.206          25.724  
E27                                                                                                                                  24434119.011    95884732.567        1121.993          32.625  
E36                                                                                                                                  25705433.898   100873642.776       -2026.189          28.255  
G05  23564407.000   123831763.777         323.958          33.226  
G09  25247607.645                         506.632          25.475    25247613.941    99077089.989         379.007          29.058  
G16  23299965.170   122442101.030        3067.177          29.493  
G21  21989655.978   115556468.159        2111.072          41.962  
G23  25226751.683   132567472.933        -994.864          30.744  
G25  22616433.269   118850155.928       -3436.561          27.850    22616440.464    88751716.0491      -2566.360          24.129  
G26  21341340.098   112149489.052        1877.870          37.556    21341338.599    83747989.130        1402.300          35.432  
G29  20702660.746   108793176.225       -1849.596          37.137  
G31  21930499.131   115245540.598       -2436.975          44.992  
R06  23598642.400   125926734.762       -1790.369          27.966  
R07  23363518.473   125066807.552        1425.761          27.543  
R13  21019190.917   112241294.649       -3846.161          31.234  
R15  22075093.231                        3538.415          23.299  
R17  22939081.304   122751644.957        3696.914          37.210  
R23  19628729.513   105000489.595       -2200.049          35.979  
R24  19681623.695   105246460.262        1492.171          35.755  
> 2019  8  1  8  4 37.0000000  0 26
C11  25759041.886   134134089.237        2862.553          29.426  
C12  21373226.024   111296002.133        -442.640          33.772  
C13  38898063.631   202552431.023       -1196.361          27.415  
C20  26433941.863   137648511.057        -847.692          30.615  
C24  22782458.032   118634245.474       -2016.341          42.286  
C25  23320968.929   121438424.290        1287.329          32.813  
C26  25473806.751   132648746.671       -3746.212          32.082  
E02                                                                                                                                  26816260.589   105232683.519       -2402.605          26.055  
E27                                                                                                                                  24433833.909    95883611.179        1121.388          32.802  
E36                                                                                                                                  25705949.242   100875669.386       -2026.611          27.941  
G05  23564343.744   123831440.796         322.981          33.087  
G09  25247512.911   132676569.2641        507.150          25.444    25247516.808    99076711.621         378.368          28.990  
G16  23299378.776                        3066.494          29.199  
G21  21989253.656   115554357.865        2110.294          42.066  
G23  25226941.752   132568468.689        -995.756          31.000  
G25  22617088.316   118853592.670       -3436.743          28.082    22617094.911                       -2566.810          23.843  
G26  21340980.347   112147612.004        1877.048          37.467    21340980.946    83746587.437        1401.694          35.450  
G29  20703011.204   108795026.627       -1850.402          37.065  
G31  21930960.812   115247978.479       -2437.881          44.985  
R06  23598970.373   125928526.346       -1791.584          28.047  
R07  23363250.158   125065383.073        1424.479          27.401  
R13  21019911.018   112245141.704       -3847.055          31.384  
R15  22074442.981                        3538.310          23.476  
R17  22938401.675   122747948.687        3696.270          35.915  
R23  19629145.026   105002690.597       -2201.002          35.905  
R24  19681349.685   105244969.157        1491.105          35.664  
> 2019  8  1  8  4 38.0000000  0 27
C11  25758492.067   134131227.251        2861.986          29.583  
C12  21373313.563   111296445.552        -443.419          33.305  
C13  38898294.771   202553627.975       -1196.952          26.982  
C20  26434105.849   137649359.756        -848.699          30.860  
C24  22782844.465   118636262.768       -2017.294          42.444  
C25  23320723.999   121437137.921        1286.369          32.842  
C26  25474525.953   132652493.349       -3746.678          32.125  
E02                                                                                                                                  26816872.166   105235086.592       -2403.073          25.721  
E27                                                                                                                                  24433547.607    95882490.262        1120.918          32.831  
E36                                                                                                                                  25706466.683   100877696.456       -2027.070          28.396  
G02  25475759.299                       -3435.706          23.106  
G05  23564286.484   123831118.986         321.810          33.266  
G09  25247418.176   132676063.714         505.550          25.420    25247422.073    99076334.170         377.451          28.952  
G16  23298796.579   122435968.3111       3066.038          29.334  
G21  21988852.534   115552248.483        2109.382          42.129  
G23  25227127.923   132569465.392        -996.703          30.968  
G25  22617739.765   118857030.616       -3437.945          28.056    22617748.159    88756850.0651      -2567.290          23.277  
G26  21340625.093   112145735.783        1876.221          37.316    21340624.493    83745186.328        1401.109          35.653  
G29  20703364.659   108796877.841       -1851.214          37.359  
G31  21931426.989   115250417.306       -2438.827          45.057  
R06  23599301.344   125930319.129       -1792.783          27.757  
R07  23362994.735   125063959.733        1423.340          27.562  
R13  21020631.120   112248989.697       -3847.992          31.216  
R15  22073794.830                        3536.981          23.187  
R17  22937709.454   122744253.092        3695.595          36.436  
R23  19629555.442   105004892.644       -2202.047          35.957  
R24  19681067.880   105243479.132        1490.025          35.610  
> 2019  8  1  8  4 39.0000000  0 27
C11  25757943.147   134128365.652        2861.599          29.461  
C12  21373396.006   111296889.776        -444.224          33.323  
C13  38898523.812   202554825.311       -1197.336          27.105  
C20  26434269.236   137650209.350        -849.594          30.923  
C24  22783232.696   118638280.826       -2018.058          42.432  
C25  23320477.569   121435852.294        1285.627          32.807  
C26  25475244.855   132656240.557       -3747.208          31.728  
E02                                                                                                                                  26817487.040   105237490.145       -2403.554          25.441  
E27                                                                                                                                  24433262.804    95881369.877        1120.384          32.745  
E36                                                                                                                                  25706982.926   100879723.922       -2027.466          28.069  
G02  25476415.245                       -3435.929          23.175  
G05  23564226.525   123830798.127         320.859          33.133  
G09  25247322.842   132675559.187         504.527          25.093    25247324.941    99075957.387         376.783          29.071  
G16  23298210.485   122432902.794        3065.517          29.026  
G21  21988450.213   115550139.783        2108.699          42.097  
G23  25227317.092   132570463.015        -997.624          31.091  
G25                                                                  22618400.807                       -2568.050          23.708  
G26  21340264.742   112143860.240        1875.543          37.153    21340267.140    83743785.800        1400.528          35.210  
G29  20703716.915   108798729.816       -1851.975          37.184  
G31  21931891.068   115252856.956       -2439.650          44.794  
R06  23599644.906   125932113.084       -1793.956          27.858  
R07  23362724.023   125062537.479        1422.254          27.868  
R13  21021349.722   112252838.509       -3848.813          31.356  
R15  22073095.114                        3532.329          23.437  
R17  22937013.636   122740558.068        3695.024          37.064  
R23  19629967.356   105007095.590       -2202.947          35.997  
R24  19680792.971   105241990.118        1489.014          35.594  
> 2019  8  1  8  4 40.0000000  0 27
C11  25757393.028   134125504.481        2861.171          28.831  
C12  21373483.245   111297334.551        -444.775          33.156  
C13  38898754.053   202556022.954       -1197.643          27.150  
C20  26434434.122   137651059.637        -850.288          31.223  
C24  22783620.927   118640299.570       -2018.745          42.451  
C25  23320233.238   121434567.418        1284.876          32.856  
C26  25475963.757   132659988.005       -3747.448          31.823  
E02                                                                                                                                  26818096.818   105239893.672       -2403.526          26.161  
E27                                                                                                                                  24432977.402    95880249.826        1120.052          32.839  
E36                                                                                                                                  25707500.068   100881751.763       -2027.842          28.302  
G02  25477073.589                       -3435.684          22.396  
G05  23564164.468   123830478.097         320.030          33.192  
G09  25247224.810   132675055.461         503.726          24.594    25247229.607    99075581.136         376.251          28.978  
G16  23297630.686   122429837.660        3065.134          28.898  
G21  21988047.891   115548031.823        2107.961          42.156  
G23  25227512.856   132571461.305        -998.290          31.181  
G25  22619048.958   118863908.1071      -3438.891          28.320    22619055.554    88761985.8911      -2568.077          23.917  
G26  21339910.387   112141985.359        1874.881          37.123    21339910.088    83742385.700        1400.100          35.393  
G29  20704069.471   108800582.372       -1852.556          37.119  
G31  21932356.046   115255297.317       -2440.361          44.606  
R06  23599994.464                       -1795.276          27.417  
R07  23362457.807   125061116.166        1421.313          27.508  
R13  21022074.920   112256688.092       -3849.582          30.953  
R15  22072435.271                        3533.562          24.030  
R17  22936324.713   122736863.305        3694.764          37.996  
R23  19630383.169   105009299.348       -2203.757          36.149  
R24  19680512.964   105240502.005        1488.113          35.307  
> 2019  8  1  8  4 41.0000000  0 26
C11  25756846.806                        2862.381          28.824  
C12  21373568.387   111297780.036        -445.486          33.368  
C13  38898984.893   202557220.872       -1197.919          26.785  
C20  26434596.010   137651910.775        -851.137          30.886  
C24  22784007.960   118642319.063       -2019.493          42.988  
C25  23319979.914   121433283.264        1284.154          33.018  
C26  25476684.758   132663735.838       -3747.833          31.789  
E02                                                                                                                                  26818711.392   105242297.874       -2404.202          25.551  
E27                                                                                                                                  24432691.400    95879130.257        1119.569          32.741  
E36                                                                                                                                  25708016.910   100883779.893       -2028.129          28.388  
G05  23564097.914   123830159.062         319.035          32.953  
G09  25247133.073                         502.180          24.695    25247133.373                         375.380          29.023  
G16  23297047.590   122426772.905        3064.755          29.210  
G21  21987649.167   115545924.475        2107.347          41.980  
G23  25227700.826   132572460.456        -999.151          31.167  
G25  22619704.904   118867347.757       -3439.650          28.914    22619707.003    88764554.570       -2568.679          20.736  
G26  21339552.735   112140111.163        1874.196          37.234    21339553.634    83740986.144        1399.556          35.433  
G29  20704421.727   108802435.630       -1853.258          36.967  
G31  21932818.925   115257738.472       -2441.155          43.477  
R06  23600337.127   125935703.9871      -1796.019          28.010  
R07  23362197.887                        1420.020          27.219  
R13  21022796.521   112260538.435       -3850.343          31.275  
R15  22071788.918                        3530.739          23.812  
R17  22935647.182   122733168.930        3694.375          33.568  
R23  19630795.383   105011503.958       -2204.610          36.115  
R24  19680234.757   105239014.827        1487.178          35.791  
> 2019  8  1  8  4 42.0000000  0 26
C11  25756301.484                        2858.609          25.804  
C12  21373654.127   111298226.184        -446.147          33.472  
C13  38899213.935   202558419.062       -1198.190          26.930  
C20  26434758.497   137652762.616        -851.842          30.578  
C24  22784398.289   118644339.267       -2020.204          42.453  
C25  23319738.281   121431999.886        1283.378          32.757  
C26  25477403.061   132667483.937       -3748.098          31.482  
E02                                                                                                                                  26819322.669   105244702.083       -2404.209          26.455  
E27                                                                                                                                  24432404.798    95878011.074        1119.183          32.165  
E36                                                                                                                                  25708534.352   100885808.371       -2028.478          28.312  
G05  23564043.052   123829840.876         318.185          33.279  
G09  25247038.039                         501.734          24.648    25247037.739    99074830.6411        374.940          28.683  
G16  23296463.594   122423708.694        3064.211          28.651  
G21  21987251.343   115543817.747        2106.728          42.376  
G23  25227888.496   132573460.327        -999.871          30.430  
G25  22620358.152   118870787.769       -3440.012          28.489    22620363.248                       -2568.295          24.367  
G26  21339196.582   112138237.480        1873.683          37.100    21339197.181    83739587.012        1399.132          35.409  
G29  20704772.484   108804289.536       -1853.906          36.729  
G31  21933284.503   115260180.370       -2441.898          44.917  
R06  23600664.200   125937501.040       -1797.053          27.635  
R07  23361937.667   125058276.4881       1419.312          27.969  
R13  21023522.918   112264389.512       -3851.077          30.665  
R15  22071112.886   117941444.5621       3532.392          25.091  
R17  22934945.668   122729475.316        3693.614          32.852  
R23  19631213.893   105013709.381       -2205.424          36.044  
R24  19679954.451   105237528.530        1486.297          35.589  
> 2019  8  1  8  4 43.0000000  0 26
C11  25755751.664                        2846.087          20.940  
C12  21373738.069   111298673.090        -446.906          33.800  
C13  38899442.376   202559617.866       -1198.804          27.396  
C20  26434921.285   137653615.558        -852.942          30.744  
C24  22784784.122   118646360.330       -2021.063          43.374  
C25  23319490.053   121430717.303        1282.583          32.398  
C26  25478122.263   132671232.624       -3748.688          31.453  
E02                                                                                                                                  26819935.145   105247106.766       -2404.683          25.561  
E27                                                                                                                                  24432122.394    95876892.384        1118.690          32.040  
E36                                                                                                                                  25709051.494   100887837.241       -2028.869          28.313  
G05  23563982.794   123829523.708         317.169          33.205  
G09  25246940.007   132673549.3241        501.557          25.107    25246941.806    99074456.508         374.133          28.801  
G16  23295881.697   122420644.976        3063.718          28.929  
G21  21986848.721   115541711.954        2105.793          42.052  
G23  25228077.066   132574461.217       -1000.890          31.214  
G25                                                                  22621020.993                       -2569.056          23.481  
G26  21338840.128   112136364.699        1872.781          37.171    21338841.328    83738188.511        1398.501          35.778  
G29  20705126.239   108806144.209       -1854.673          36.895  
G31  21933747.682   115262623.192       -2442.822          43.016  
R06  23601008.662   125939299.244       -1798.203          28.057  
R07  23361669.653   125056858.392        1418.096          28.070  
R13  21024246.917   112268241.527       -3852.015          30.946  
R15  22070453.643                        3531.464          23.446  
R17  22934243.853   122725782.150        3693.165          30.397  
R23  19631618.913   105015915.765       -2206.383          36.080  
R24  19679677.143   105236043.345        1485.184          35.827  
> 2019  8  1  8  4 44.0000000  0 26
C11  25755197.048                        2848.276          22.410  
C12  21373826.808   111299120.668        -447.578          34.109  
C13  38899672.617                       -1199.159          27.812  
C20  26435085.871   137654469.037        -853.479          30.937  
C24  22785172.953   118648382.173       -2021.842          41.809  
C25  23319236.129   121429435.491        1281.812          31.927  
C26  25478842.964   132674981.554       -3748.930          31.553  
E02                                                                                                                                  26820547.621   105249511.774       -2405.008          25.879  
E27                                                                                                                                  24431836.392    95875774.123        1118.261          33.205  
E36                                                                                                                                  25709568.936   100889866.394       -2029.154          28.660  
G05  23563922.236   123829207.400         316.308          33.795  
G09  25246852.768                         499.750          24.655    25246847.071    99074082.927         373.581          28.960  
G16  23295295.303   122417581.614        3063.363          29.117  
G21  21986446.100   115539606.655        2105.299          42.926  
G23  25228270.132   132575462.849       -1001.632          30.778  
G25  22621666.746   118877669.6581      -3441.175          29.334    22621676.639                       -2569.853          23.297  
G26  21338483.975   112134492.515        1872.185          36.352    21338484.275    83736790.391        1398.120          35.561  
G29  20705480.594   108807999.525       -1855.316          37.309  
G31  21934213.260   115265066.781       -2443.589          40.502  
R06  23601333.637   125941098.463       -1799.219          28.465  
R07  23361406.735                        1416.775          27.312  
R13  21024965.819   112272094.280       -3852.753          30.818  
R15  22069806.991                        3528.649          23.196  
R17  22933554.031                        3691.868          28.043  
R23  19632029.029   105018122.986       -2207.221          36.667  
R24  19679402.533   105234558.997        1484.349          35.331  
> 2019  8  1  8  4 45.0000000  0 27
C11  25754645.130                        2844.579          25.666  
C12  21373909.550   111299568.728        -448.059          33.178  
C13  38899904.357   202562015.9981      -1199.185          27.583  
C20  26435251.057   137655323.226        -854.190          31.167  
C24  22785563.283   118650404.531       -2022.359          39.079  
C25  23318997.194   121428154.193        1281.297          33.485  
C26  25479561.866   132678730.567       -3749.013          33.043  
E02                                                                                                                                  26821160.997   105251916.875       -2405.102          25.983  
E27                                                                                                                                  24431551.589    95874656.037        1118.086          32.829  
E36                                                                                                                                  25710085.178   100891895.713       -2029.319          28.973  
G02  25480340.427                       -3438.834          22.536  
G05  23563860.479   123828891.877         315.523          33.404  
G09  25246754.735   132672549.9801        499.597          25.596    25246752.037    99073709.819         373.108          29.123  
G16  23294711.007   122414518.611        3063.003          29.950  
G21  21986046.177   115537501.964        2104.691          41.547  
G23  25228460.500   132576464.927       -1002.078          30.986  
G25  22622318.495   118881111.241       -3441.583          28.401    22622329.587    88774833.4041      -2570.122          23.659  
G26  21338127.522   112132620.746        1871.769          37.458    21338128.721    83735392.695        1397.696          34.758  
G29  20705831.051   108809855.302       -1855.777          36.863  
G31  21934674.941   115267510.843       -2444.062          36.099  
R06  23601666.706   125942898.518       -1800.055          27.856  
R07  23361141.119   125054024.8591       1416.447          27.555  
R13  21025682.923   112275947.593       -3853.313          31.030  
R15  22069136.055                        3530.390          23.566  
R17  22932868.106                        3692.450          27.989  
R23  19632443.942   105020330.732       -2207.746          36.186  
R24  19679115.332   105233075.391        1483.606          34.879  
> 2019  8  1  8  4 46.0000000  0 26
C11  25754096.210   134108375.8671       2859.203          29.781  
C12  21373998.589   111300017.268        -448.540          33.442  
C13  38900138.195   202563215.372       -1199.374          27.834  
C20  26435417.142   137656178.220        -854.994          31.538  
C24  22785948.816   118652427.484       -2022.952          35.741  
C25  23318748.067   121426873.518        1280.675          31.648  
E02                                                                                                                                  26821774.972   105254322.184       -2405.309          26.568  
E27                                                                                                                                  24431266.486    95873538.407        1117.630          33.125  
E36                                                                                                                                  25710602.320   100893925.441       -2029.728          29.776  
G02  25481004.168   133903575.7421      -3438.503          23.076  
G05  23563805.017   123828577.191         314.686          32.591  
G09  25246656.104   132672051.063         498.917          27.101  
G16  23294128.211   122411455.794        3062.816          28.888  
G21  21985645.354   115535398.106        2103.858          37.127  
G23  25228652.967   132577467.869       -1002.942          32.462  
G25  22622976.239   118884553.197       -3441.956          32.940    22622983.434    88777403.721       -2570.317          24.017  
G26  21337773.167   112130749.573        1871.173          36.726    21337771.968    83733995.361        1397.335          34.921  
G29  20706186.006   108811711.592       -1856.290          37.296  
G31  21935148.613   115269955.511       -2444.668          41.966  
R06  23602005.472   125944699.463       -1800.945          29.041  
R07  23360884.496   125052609.527        1415.332          27.999  
R13  21026403.624   112279801.525       -3853.932          29.370  
R15  22068475.013                        3533.084          25.088  
R17  22932192.374   122714705.8491       3691.850          35.264  
R23  19632862.452   105022539.388       -2208.656          37.704  
R24  19678846.418   105231592.599        1482.792          34.724  
> 2019  8  1  8  4 47.0000000  0 27
C11  25753549.089   134105517.059        2858.808          31.796  
C12  21374084.030   111300466.646        -449.378          34.007  
C13  38900366.936   202564415.018       -1199.646          27.472  
C20  26435582.327                        -855.877          29.741  
C24  22786338.546   118654451.287       -2023.803          36.506  
C25  23318502.537   121425593.677        1279.841          30.249  
E02                                                                                                                                  26822388.047   105256727.875       -2405.691          26.864  
E21                                                                                                                                  29050683.630                        2069.054          19.767  
E27                                                                                                                                  24430981.983    95872421.220        1117.187          32.695  
E36                                                                                                                                  25711120.362   100895955.483       -2030.042          29.317  
G02  25481654.118   133907014.726       -3438.983          25.592  
G05  23563739.962   123828263.413         313.777          32.844  
G09  25246564.967   132671553.264         497.799          27.813    25246560.170    99072965.4981        371.775          28.616  
G16  23293541.817   122408393.671        3062.123          28.207  
G21  21985247.830                        2102.688          32.740  
G23  25228844.834   132578471.555       -1003.686          32.690  
G25  22623633.385   118887995.871       -3442.675          33.011    22623636.982    88779974.601       -2570.880          23.528  
G26  21337416.414   112128879.136        1870.437          36.834    21337416.414    83732598.633        1396.727          34.882  
G29  20706535.864   108813568.692       -1857.099          36.606  
G31  21935609.993   115272401.108       -2445.597          41.138  
R06  23602348.734   125946501.594       -1802.131          28.318  
R07  23360617.681   125051195.256        1414.271          30.652  
R13  21027118.629   112283656.356       -3854.831          28.002  
R15  22067834.656                        3527.506          23.966  
R17  22931498.054   122711014.709        3691.140          36.240  
R23  19633268.671   105024748.928       -2209.540          37.100  
R24  19678567.311   105230110.893        1481.706          34.866  
> 2019  8  1  8  4 48.0000000  0 28
C11  25752999.569   134102658.805        2858.254          31.678  
C12  21374170.370   111300916.757        -450.111          34.054  
C13  38900600.475   202565615.270       -1200.252          27.133  
C20  26435746.314   137657890.5221       -856.727          29.363  
C24  22786725.278   118656475.893       -2024.606          36.394  
C25  23318258.506   121424314.742        1278.936          30.252  
C26  25481718.573   132689979.4541      -3750.245          28.131  
E02                                                                                                                                  26823000.823   105259134.044       -2406.169          26.012  
E21                                                                                                                                  29050156.595                        2068.332          19.183  
E27                                                                                                                                  24430696.880    95871304.522        1116.698          31.943  
E36                                                                                                                                  25711637.204   100897985.954       -2030.471          28.213  
G02  25482316.959   133910454.002       -3439.276          25.999  
G05  23563683.601   123827950.655         312.758          32.140  
G09  25246472.331                         496.514          26.939    25246467.534    99072594.387         371.110          28.101  
G16  23292962.618                        3061.053          27.746  
G21  21984848.206   115531192.0381       2102.576          30.094  
G23  25229034.603   132579476.160       -1004.604          31.690  
G25                                                                  22624293.228    88782545.760       -2571.159          22.728  
G26  21337060.261   112127009.460        1869.675          37.604    21337060.261    83731202.451        1396.182          34.752  
G29  20706892.017   108815426.527       -1857.836          37.079  
G31  21936079.468   115274847.595       -2446.487          39.591  
R06  23602687.499   125948304.882       -1803.288          27.605  
R07  23360350.266   125049782.059        1413.197          31.216  
R13  21027849.223   112287512.078       -3855.722          27.532  
R15  22067153.528                        3526.902          23.957  
R17  22930803.435   122707324.135        3690.574          36.350  
R23  19633687.781   105026959.368       -2210.440          36.085  
R24  19678293.901   105228630.167        1480.727          34.868  
> 2019  8  1  8  4 49.0000000  0 28
C11  25752451.549   134099800.722        2858.083          32.046  
C12  21374257.909   111301367.395        -450.638          33.929  
C13  38900829.816   202566815.582       -1200.312          26.387  
C20  26435911.799   137658747.853        -857.331          30.341  
C24  22787116.508   118658501.121       -2025.228          36.260  
C25  23318012.376   121423036.370        1278.372          30.758  
C26  25482437.775   132693729.875       -3750.420          27.251  
E02                                                                                                                                  26823614.798   105261540.256       -2406.212          25.707  
E21                                                                                                                                  29049632.258                        2068.076          20.382  
E27                                                                                                                                  24430412.677    95870188.155        1116.368          32.440  
E36                                                                                                                                  25712155.845   100900016.627       -2030.674          29.128  
G02  25482967.808   133913893.641       -3439.639          26.841  
G05  23563624.542   123827638.695         311.960          31.744  
G09  25246373.399                         495.486          26.426    25246371.601    99072223.801         370.586          27.148  
G16  23292380.720   122402270.5711       3061.407          28.042  
G21  21984446.784   115529089.913        2102.125          28.904  
G23  25229225.571   132580481.450       -1005.291          31.567  
G25  22624943.777   118894882.7371      -3443.627          30.025    22624946.176    88785117.254       -2571.494          22.851  
G26  21336707.405   112125140.280        1869.181          38.732    21336705.606    83729806.622        1395.830          34.201  
G29  20707244.273   108817284.835       -1858.308          37.509  
G31  21936542.947   115277294.695       -2447.100          40.551  
R06  23603022.967   125950109.014       -1804.132          28.236  
R07  23360088.547   125048369.766        1412.293          31.279  
R13  21028566.926   112291368.438       -3856.360          27.693  
R15  22066505.976                        3530.979          20.737  
R17  22930102.221   122703633.922        3690.212          36.339  
R23  19634098.496   105029170.543       -2211.176          36.222  
R24  19678016.593   105227150.256        1479.910          34.795  
> 2019  8  1  8  4 50.0000000  0 28
C11  25751902.329   134096943.077        2857.644          31.969  
C12  21374345.748   111301818.655        -451.260          34.049  
C13  38901059.157   202568016.261       -1200.679          26.602  
C20  26436075.486   137659605.976        -858.123          30.558  
C24  22787504.139   118660527.035       -2025.914          36.245  
C25  23317765.647   121421758.689        1277.681          30.353  
C26  25483156.678   132697480.638       -3750.763          27.251  
E02                                                                                                                                  26824227.574   105263946.880       -2406.624          26.413  
E21                                                                                                                                  29049104.623                        2071.581          20.921  
E27                                                                                                                                  24430128.174    95869072.165        1115.990          32.066  
E36                                                                                                                                  25712673.287   100902047.610       -2030.983          29.217  
G02  25483620.457   133917333.610       -3439.969          26.910  
G05  23563568.481   123827327.545         311.150          31.836  
G09  25246281.963   132670063.9981        495.469          26.296    25246277.766    99071853.820         369.981          27.275  
G16  23291799.123                        3060.482          28.432  
G21  21984045.662   115526988.514        2101.398          28.227  
G23  25229416.838   132581487.470       -1006.020          31.258  
G25  22625599.423   118898326.861       -3444.124          29.460    22625602.122                       -2571.836          21.994  
G26  21336350.952   112123271.746        1868.533          38.766    21336350.352    83728411.290        1395.332          34.105  
G29  20707600.427   108819143.828       -1858.993          37.594  
G31  21937011.523   115279742.546       -2447.851          40.530  
R06  23603365.930   125951914.211       -1805.197          28.362  
R07  23359820.233   125046958.456        1411.311          31.138  
R13  21029285.828   112295225.568       -3857.130          27.302  
R15  22065826.646                        3528.945          19.150  
R17  22929430.386   122699944.150        3689.773          36.461  
R23  19634511.311   105031382.526       -2211.983          36.156  
R24  19677743.482   105225671.219        1479.037          34.923  
> 2019  8  1  8  4 51.0000000  0 28
C11  25751353.709   134094085.643        2857.434          32.087  
C12  21374434.487   111302270.477        -451.822          33.853  
C13  38901289.698   202569217.017       -1200.756          26.684  
C20  26436240.072   137660464.635        -858.659          30.550  
C24  22787895.968   118662553.573       -2026.537          36.138  
C25  23317521.016   121420481.614        1277.075          30.566  
C26  25483881.576   132701231.099       -3750.461          27.374  
E02                                                                                                                                  26824839.450   105266353.624       -2406.744          26.305  
E21                                                                                                                                  29048577.288                        2067.684          21.036  
E27                                                                                                                                  24429844.870    95867956.537        1115.629          32.367  
E36                                                                                                                                  25713190.728   100904078.882       -2031.272          29.477  
G02  25484274.604   133920773.744       -3440.134          27.029  
G05  23563501.927   123827017.267         310.277          31.860  
G09  25246181.232   132669569.330         494.668          26.341    25246183.331    99071484.393         369.427          27.271  
G16  23291216.626   122396148.9041       3060.657          28.526  
G21  21983647.537                        2100.724          27.934  
G23  25229608.705   132582494.179       -1006.709          31.234  
G25  22626253.870   118901771.369       -3444.508          29.198    22626258.967    88790261.3221      -2572.293          22.577  
G26  21335996.597   112121403.749        1867.997          38.865    21335993.599    83727016.317        1394.973          34.127  
G29  20707954.182   108821003.345       -1859.517          37.764  
G31  21937476.501   115282191.008       -2448.462          40.540  
R06  23603692.104   125953720.267       -1806.057          27.963  
R07  23359557.915   125045548.069        1410.387          30.798  
R13  21030006.230   112299083.276       -3857.708          26.942  
R15  22065179.094                        3522.685          18.703  
R17  22928734.567   122696254.768        3689.381          36.404  
R23  19634929.821   105033595.199       -2212.673          36.282  
R24  19677461.977   105224192.997        1478.222          34.791  
